NB,LATITUDE,LONGITUDE,NAME,NAME_MOD,AUTH_ANC,AUTH_MOD,COUNTRY,AM,PP,RE,BW,QU,MO,CN,SL,SH,PH,CO
1,63.274770,-14.761314,"Thulé, Baltia ","Iceland ? Pliny and Strabo, who cite Pythéas, place Thulé at 6 navigation days from (Great) Britain, which may be 400-600 nautical miles. Iceland is at 450 miles North of Scotland. The mention of six months long days and nights means a position beyond the Arctic Circle, which corresponds better to Iceland than to the Shetland islands.","Polybius, Hist, 34, 5 ; Pliny, Hist Nat, 2, 77 & 99 & 4, 27",BAtlas locates it in the Shetland islands,Iceland ?,a,,,,,,,,,,
2,53.041485,4.825152,"Mararmano, Manarmani ",Hoge Berg near Den Burg ? On the Isle of Texel in The Netherlands between R Vidro (R Oude Rijn ?) and R Amisius (R Eems),"Marcian, Peripl, 2, 32",Lehmann,Netherlands,a,,,,,,,,,,
3,52.535847,4.723479,,Uitgeest-Groot Dorregeest,,BAtlas,Netherlands,m,,,,,,,,,,
4,52.458867,4.666675,Flevum ,"Velsen, West of Amsterdam",,,Netherlands,m,,,,,,,,,,
5,52.213476,4.393244,"Lugdunum Batavorum, Brittenburg ","submerged offshore Katwijk, near the outlet of R Oude Rijn (R Old Rhine) which was the northern limit of the Roman empire and was navigable over a long distance, with many river ports",,,Netherlands,m,,,,,,,,,,
6,52.059003,4.348620,Forum Hadriani ,"Park Arentsburgh, at Voorburg",,Lendering,Netherlands,m,,,,,,,,,,
7,51.908592,4.034870,Helinio ,submerged offshore of Oostvoorne ?,,Lendering,Netherlands,m,,,,,,,,,,
8,51.842842,3.933839,,“Oude Wereld” submerged offshore Goeree,,Lendering,Netherlands,m,,,,,,,,,,
9,51.612180,3.837282,Ganuenta ,submerged at 1.5 km NW of Colijnsplaat,,Lendering,Netherlands,m,,,,,,,,,,
10,51.604960,3.604765,,“De Roompot” submerged offshore Domburg on the Isle of Walcheren,,Lendering,Netherlands,m,,,,,,,,,,
11,51.274214,3.448188,Rodanum ? ,Aardenburg,,Lendering,Netherlands,m,,,,,,,,,,
12,51.209048,3.444715,,Maldegem,,Lendering,Flanders,m,,,,,,,,,,
13,51.184083,3.003155,Aldenburgensis ,Roman castellum on the sea side at Oudenburg,,BAtlas,Flanders,m,,,,,,,,,,
14,51.100000,0.000001,"Albion, Britannia ",Great Britain,"Pliny, Hist Nat, 4, 30 ; Caesar, Guerre des Gaules, 5, 1 & 2, & 8 to 11",,UK,a,,,,,,,,,,
16,59.074366,-3.196805, Orcades ,"Orcades islands, North Scotland","Antonine, Itin Mar",,UK,a,,,,,,,,,,
17,56.364755,-3.219657,,Carpow ,,BAtlas,UK,m,,,,,,,,,,
18,56.013826,-3.561725,"Velunia, Veluniate ",Carriden House,,BAtlas,UK,m,,,,,,,,,,
19,55.995328,-3.309819,,Cramond ,,BAtlas,UK,m,,,,X,,,,,,
20,55.954342,-3.078588,,Inveresk ,,BAtlas,UK,m,,,,,,,,,,
21,54.987649,-1.532072,Segedunum ,"Wallsend, on R Tyne at the eastern end of Hadrien's wall, near Newcastle",,Cleere,UK,m,,r,,X?,,,,,,
22,55.004810,-1.431636,Arbeia ,South Shields,,BAtlas,UK,m,,,,,,,,,,
23,54.593847,-0.958751,possible lighthouse,Huntcliff ,,"BAtlas, Christiansen",UK,m,,,,,,,,,X?,
24,54.539743,-0.724599,possible lighthouse,Goldsborough ,,"BAtlas, Christiansen",UK,m,,,,,,,,,X?,
25,54.417024,-0.494221,possible lighthouse,Ravenscar ,,"BAtlas, Christiansen",UK,m,,,,,,,,,X?,
26,54.276000,-0.372781,possible lighthouse,Scarborough ,,"BAtlas, Christiansen",UK,m,,,,,,,,,X?,
27,54.203105,-0.264373,"Portus Felix, with possible lighthouse",Filey Brigg,,"Cleere, Christiansen",UK,m,,,,,,,,,X?,
28,54.083127,-0.159821,Gabrantiucorum portuosus sinus ,Bridlington ?,"Ptol, Geogr, 2, 3",,UK,a,,,,,,,,,,
29,53.717785,-0.591028,Petuaria ,Brough,,"Cleere, Dr P. Halkon of Univ. of Hull",UK,m,,r,,X?,,,,,,
29.1,53.704728,-0.690123,,Flaxfleet,,Dr P. Halkon of Univ. of Hull,UK,m,,,,,,,,,,
30,52.993961,0.633440,Branodunum ,Brancaster,,Cleere,UK,m,,,,,,,,,,
31,52.650764,1.739748,,"Caister-on-Sea, North of Great Yarmouth, might have had a Roman port ? ",,Cleere,UK,m,,,,,,,,,,
32,52.582496,1.651465,Gariannonum ,"Burgh Castle, West of Great Yarmouth",,Cleere,UK,m,,,,,,,,,,
33,52.152403,1.617589,,Aldeburgh might have had a Roman port ?,,,UK,m,,,,,,,,,,
34,51.972843,1.386888,,"Walton Castle, North of Felixstowe ",,BAtlas,UK,m,,,,,,,,,,
35,51.867407,0.943043,port of Camulodunum ,"Fingringhoe, near Colchester",,Cleere,UK,m,,,,,,,,,,
36,51.720524,0.707788,,"Heybridge-Maldon, South of Colchester might have had a Roman port ?",,,UK,m,,,,,,,,,,
37,51.728470,0.873512,Othona Portus ,"Bradwell on Sea, South of Colchester",,"CG, Cleere",UK,m,,r,,X?,,,,,,
38,51.507059,-0.085691,Londinium , London river port on the Thames,,Cleere,UK,m,,r,,X?,,,,,,
39,51.403535,0.553763,Durobrivae ,"Rochester, on the R Medway",,Cleere,UK,m,,,,,,,,,,
40,51.380692,1.195164,Regulbium ,"Reculver, West of Margate",,Cleere,UK,m,,,,,,,,,,
41,51.305871,1.353052,"Rutupiae, Ritupium ","Richborough, South of Margate, Kent","Antonine, Itin Mar",Cleere,UK,a,,,,,,,,,,
42,51.128380,1.322939,Portus Dubris and its famous ancient lighthouse ,Dover: port at the outlet of R Dour,,"Cleere, Christiansen",UK,m,,r,,,,,,,X,
43,50.941937,0.754811,Portus Lemanus ,"Castle of Stutfall, on the R Lympne, near Rye",,"CG, Cleere",UK,m,,,,,,,,,,
44,50.807719,0.354522,"Anderidos, Anderitum ",Pevensey,,Cleere,UK,m,,,,,,,,,,
45,50.821313,-0.241879,Novus Portus ,"Portslade, near Brighton","Ptol, Geogr, 2, 3",CG,UK,a,,,,,,,,,,
46,50.829377,-0.816374,port of Noviomagus Regnorum ,"Fishbourne and/or Bosham, near Chichester",,Cleere,UK,m,,,,,,,,,,
47,50.826951,-0.996456,Magnus Portus ,? between Portsmouth and Chicester,"Ptol, Geogr, 2, 3",,UK,a,,,,,,,,,,
48,50.838576,-1.112360,"Portus Adurni, Ardaoni, ",Portchester Castle,,Cleere,UK,m,,,,,,,,,,
49,50.769578,-1.291234,Vecta ,"Cowes, on the isle of Wight","Antonine, Itin Mar",,UK,a,,,,,,,,,,
50,50.912094,-1.375100,Clausentum ,Bitterne,,Cleere,UK,m,,,,,,,,,,
51,50.706044,-1.982020,,"Hamworthy, near Poole",,Cleere,UK,m,,,,,,,,,,
52,50.622379,-2.437267,,"Radipole, near Dorchester",,Cleere,UK,m,,,,,,,,,,
53,50.674872,-3.463765,Isca Dumnoniorum ,"Exeter, with aport at Topsham on the R Exe",,Cleere,UK,m,,,,,,,,,,
54,49.929793,-6.321576, Sicdelis ,"Iles Scilly, West of Cornwall","Antonine, Itin Mar",,UK,a,,,,,,,,,,
55,51.209712,-3.078005,,"Combwich, in front of Cardiff might have had a Roman port ?",,,UK,m,,,,,,,,,,
56,51.480947,-2.649478,Abona ,"Sea Mills, near Bristol",,Cleere,UK,m,,,,,,,,,,
57,51.609870,-2.776530,Venta Silurum ,Caerwent,,Cleere,UK,m,,,,,,,,,,
58,51.444889,-3.129520,Tamion ,near Cardiff ?,,BAtlas,UK,m,,,,,,,,,,
59,51.380965,-3.272925,,Barry ,,BAtlas,UK,m,,,,,,,,,,
60,51.663974,-3.829510,"Nido, Nidum ",Neath,,Cleere,UK,m,,,,,,,,,,
61,51.855046,-4.303504,Moridunum ,Carmarthen,,Cleere,UK,m,,,,,,,,,,
62,52.578808,-3.903668,,Pennal might have had a Roman port ? ,,Cleere,UK,m,,,,,,,,,,
63,53.137919,-4.265732,"Segontium, with two lighthouses: Holyhead Mountain (around 30 km NW) and Dinas Dinlle (7.5 km SW) ",Caernarfon,,"Cleere, Christiansen",UK,m,,,,,,,,,X,
64,53.217486,-3.832119,"Canovium, Conovium ",Caerhûn,,Cleere,UK,m,,,,,,,,,,
65,53.346748,-3.409645,,"Prestatyn, West of Liverpool might have had a Roman port ?",,,UK,m,,,,,,,,,,
66,53.252673,-3.129416,port of Deva Victrix ,"Pentre Flint, near Chester",,Cleere,UK,m,,,,,,,,,,
67,53.384103,-2.578481,,"Wilderspool, near Liverpool",,Cleere,UK,m,,,,,,,,,,
68,53.915253,-3.002255,Setantiorum Portus ,"unlocalized near Fleetwood, perhaps at Bourne Hill, perhaps eroded by the sea ?","Ptol, Geogr, 2, 3",,UK,a,,,,,,,,,,
69,54.054178,-2.805228,Calunium ,Lancaster,,Cleere,UK,m,,,,,,,,,,
70,54.083386,-4.438572," Monaoeda, Monobia, Manavia ",Isle of Man,,,UK,m,,,,,,,,,,
71,54.352566,-3.415718,Glannoventa ,Ravenglass,,Cleere,UK,m,,,,,,,,,,
72,54.573062,-3.590878,Gabrosentum ,near Parton,,BAtlas,UK,m,,,,,,,,,,
73,54.660150,-3.571636,Magis ,Workington,,BAtlas,UK,m,,,,,,,,,,
74,54.720654,-3.493931,"Alauna, Alione ","Maryport, on the Firth of Solway near the west end of Hadrien's wall",,Cleere,UK,m,,,,,,,,,,
75,54.813776,-3.442960,"Bibra, Bribra ",near Mawbray ?,,BAtlas,UK,m,,,,,,,,,,
76,54.955173,-3.212298,Maia ,near Bowness-on-Solway ?,,BAtlas,UK,m,,,,,,,,,,
77,54.933833,-3.134855,Congavata ? ,near Drumburgh ?,,BAtlas,UK,m,,,,,,,,,,
78,54.927372,-3.832843,,"Dalbeattie, on the Firth of Solway might have had a Roman port ?",,,UK,m,,,,,,,,,,
79,55.612490,-5.258440, Clota in Hiverione ,"Isle of Arran, in the Firth of Clyde near Glasgow","Antonine, Itin Mar",,UK,a,,,,,,,,,,
80,43.340007,-1.787856,"Oiasso, Olarso, Oeason, Oyarzun ","Estuary of R Bidasoa, Irun","Strabo, Geogr, 3, 4",,Spain North,a,,r,,X,,,,,,
81,43.404148,-2.696571,,Portuondo ,,BAtlas,Spain North,m,,,,,,,,,,
82,43.382168,-3.206565,"Flaviobriga, Portus Amanum, Port of the Amanes",Castro Urdiales,"Pliny, Hist Nat, 4, 34",,Spain North,a,,,,,,,,,,
83,43.448146,-3.826714,"Portus Victrix, Portus Victoriae Iuliobrigensium, Port of Juliobrigiens' Victory",Santander,"Pliny, Hist Nat, 4, 34",CG,Spain North,a,,,,,,,,,,
84,43.442708,-4.037401,Portus Blendium ,Suances,"Pliny, Hist Nat, 4, 34",,Spain North,a,,,,,,,,,,
85,43.395049,-4.380770,Portus Veseasueca ,San Vicente de la Barquera,"Pliny, Hist Nat, 4, 34",,Spain North,a,,,,,,,,,,
86,43.544420,-5.652023,Gigia ,Gijon,,BAtlas,Spain North,m,,,,,,,,,,
87,43.570164,-5.703103,"Noega, with lighthouse Torre Augusto ","Gijon, Campa Torres",,"BAtlas, Christiansen",Spain North,m,,r,,,,,,,X,
88,43.505312,-6.097233,Flavionavia ,near Pravia,,BAtlas,Spain North,m,,,,,,,,,,
89,43.692323,-7.582917,Starbanhom ,"Roman villa with a port near Playa de Area, Viveiro",,Roberto Reigosa Mendez,Spain North,m,,r,,X,,,,,,
90,43.735507,-7.699795,"Portus Artaboi, Port of the Artabres ",Bares,"Strabo, Geogr, 3, 3 ; Ptol, Geogr, 2, 6",Macineira (1947) ,Spain North,a,,,,,,,,,,
90.1,43.476774,-8.255077,,El Ferrol,,AdG,Spain North,m,p,,,,,,,,,
91,43.368231,-8.396896,Brigantum and its famous ancient lighthouse Torre Hercules,"La Coruna, Corogna, Corogne",,"Blackman, Christiansen",Spain North,m,,r,,,,,,,X,
92,43.251118,-8.903292,Castellum Aviliobris ,near Ponteceso,,BAtlas,Spain North,m,,,,,,,,,,
92.1,43.132356,-9.172238,,Camarinas,,AdG,Spain North,m,p,,,,,,,,,
93,42.917457,-9.251560,"Portus Artaboi, Port of the Artabres ",Finisterre,"Strabo, Geogr, 3, 3 ; Ptol, Geogr, 2, 6",BAtlas,Spain North,a,,,,,,,,,,
94,42.781443,-8.891668,"Portus Ebora, Noouion ",Noia in the Ria de Muros y Noya,"Mela, Geogr, 3, 2",,Spain North,a,,,,,,,,,,
95,42.711130,-9.020907,,Castro Barona ,,BAtlas,Spain North,m,,,,,,,,,,
96,42.675720,-8.726651,"Turris Augusti, Torres del Oeste ","Catoira, Pontevedra",,de la Pena,Spain North,m,,,,,,,,,,
96.1,42.487487,-8.844113,,Isla Toxa Grande,,AdG,Spain North,m,p,,,,,,,,,
97,42.431958,-8.881260,,A Lanzada ,,BAtlas,Spain North,m,,,,,,,,,,
97.1,42.436096,-8.647116,Turoqua,Pontevedra,,,Spain North,m,p,,,,,,,,,
97.2,42.303984,-8.637750,,Ensenada de San Simon,,AdG,Spain North,m,p,,,,,,,,,
98,42.247423,-8.717793,Vicus Spacorum ,Vigo,,BAtlas,Spain North,m,,,,,,,,,,
99,41.880870,-8.855819,estuary of R Mino ,La Guardia-Pontevedra,"Strabo, Geogr, 3, 3",de la Pena,Spain North,a,,,,,,,,,,
100,41.868573,-8.852140,"R Baenis, Minius, navigable","R Mino, Minho, near Caminha and further upstream","Strabo, Geogr, 3, 3",,Portugal,a,p,,,,,,,,,
101,41.688542,-8.834348,"R Lethe, R Limeas, R Oblivio",Viana do Castelo on the R Lima ,,Pinheiro-Blot,Portugal,m,p,,,,,,,,,
102,41.536397,-8.796086,,Esposende on the R Cavado ,,Pinheiro-Blot,Portugal,m,,,,,,,,,,
103,41.335021,-8.753453,,Vila do Conde on the R Ave ,,Pinheiro-Blot,Portugal,m,,,,,,,,,,
104,41.141823,-8.658721,"Portus Galum, Portus Cale, estuary of R Douro ",Porto,,de la Pena,Portugal,m,,,,,,,,,,
105,41.146507,-8.637420,"R Durius, navigable",Douro,"Strabo, Geogr, 3, 3",,Portugal,a,,,,,,,,,,
106,40.633151,-8.470014,Talabriga ,"Marnel at Lamas do Vouga, near Aveiro",,Pinheiro-Blot,Portugal,m,,,,,,,,,,
107,40.205265,-8.429767,Aeminium on the R Mondego ,Coimbra,,Pinheiro-Blot,Portugal,m,,,,,,,,,,
108,40.099665,-8.494551,Conimbriga ,between Figueira da Foz and Coimbra,,Pinheiro-Blot,Portugal,m,,,,,,,,,,
109,39.582659,-9.040373,,"Lagoa de Pederneira, near Nazaré, Alcobaça ",,Pinheiro-Blot,Portugal,m,,,,,,,,,,
110,39.510693,-9.137873,,"Alfeizerao, near Sao Martinho do Porto",,Pinheiro-Blot,Portugal,m,p,,,,,,,,,
111,39.407020,-9.208855,Eburobrittium ,Obidos,,Pinheiro-Blot,Portugal,m,,,,,,,,,,
112,39.355900,-9.378173,,Peniche ,,Pinheiro-Blot,Portugal,m,p,,,,,,,,,
113,39.256949,-9.343581,,Lourinha ,,Pinheiro-Blot,Portugal,m,,,,,,,,,,
114,39.108058,-9.407069,,Torres Vedras on the R Sizandro ,,Pinheiro-Blot,Portugal,m,,,,,,,,,,
115,38.702488,-9.122201,"Olisipo, Oliosipon ","Lisbon, estuary of R Tage","Strabo, Geogr, 3, 3",,Portugal,a,p,,,,,,,,,
116,38.788791,-9.083167,,Sacavem ,,Pinheiro-Blot,Portugal,m,,,,,,,,,,
117,38.957058,-8.975698,,"Povos, at Vila Franca de Xira on the R Tage ",,Pinheiro-Blot,Portugal,m,,,,,,,,,,
118,38.611187,-9.053645,"Abona, Aquabona ",near Coina,,BAtlas,Portugal,m,,,,,,,,,,
118.1,38.644219,-9.107602,,Seixal,,AdG,Portugal,m,p,,,,,,,,,
119,38.673213,-9.137968,,Almada ,,Pinheiro-Blot,Portugal,m,,,,,,,,,,
120,38.416065,-9.216196,"Promontorium Barbarium, Pirgo Barbarion and its ancient lighthouse ","Cape Espichel, South of the estuary of R Tage",,de la Pena,Portugal,m,,,,,,,,,,
121,38.511223,-8.891550,Caetobriga ,Setubal,,BAtlas,Portugal,m,p,,,,,,,,,
122,38.367871,-8.514263,"Salacia, Abul ","Alcacer do Sal, upstream of Setubal on the R Sado","Strabo, Geogr, 3, 3",Carayon,Portugal,a,,,,,,,,,,
123,38.495823,-8.902507,,Troia ,,BAtlas,Portugal,m,p,,,,,,,,,
124,37.952474,-8.870463,Sinus,Sines ,,BAtlas,Portugal,m,p,,,,,,,,,
125,37.721376,-8.786403,Patulus portus ,Vila Nova de Milfontes ?,,BAtlas,Portugal,m,p,,,,,,,,,
126,37.103291,-9.083454,"Paetanion, Paetion, Anion ",island ? in Algarve,"Avienus, Ora Maritima",,Portugal,a,,,,,,,,,,
127,37.012271,-9.119122,"Atlantis, Atlantide ","mythical site located by Plato beyond the Pillars of Hercules and by Diodore at several days of navigation near West Afrika, but the location of this island is still much debated (perhaps somewhere between R Guadiana and R Guadalquivir in the Tartessos country, some locate it at Nea Kameni on Santorini island)","Solon mentioned by Plato, Timée & Critias ; Diodorus, Hist, 5, 15",,Portugal,a,,,,,,,,,,
128,36.995109,-8.941947,Sacred Promontary,"Sagres, near Cape San Vincente","Strabo, Geogr, 3, 1",,Portugal,a,,,,,,,,,,
129,37.094423,-8.661373,Lacobriga ,Lagos ?,,BAtlas,Portugal,m,p,,,,,,,,,
130,37.129378,-8.598521,"Ipses, Portus Hannibalis ? ",Alvor,,Pinheiro-Blot,Portugal,m,p,,,,,,,,,
131,37.123097,-8.525071,"Portus Hannibalis, Port of Annibal ","Portimao, Algarve","Mela, Geogr, 3, 1",CG,Portugal,a,p,,,,,,,,,
131.1,37.080139,-8.120700,,"Cerro da Vila, Vilamoura",,AdG,Portugal,m,p,,,,,,,,,
132,37.012677,-7.936769,Ossonoba ,Faro,"Strabo, Geogr, 3, 2",,Portugal,a,p,,,,,,,,,
132.1,37.033446,-7.812116,,Olhao,,AdG,Portugal,m,p,,,,,,,,,
133,37.076532,-7.707139,Balsa ,"Torre d’Aires, near Luz de Tavira",,BAtlas,Portugal,m,,,,,,,,,,
133.1,37.126610,-7.649504,,Tavira,,AdG,Portugal,m,p,,,,,,,,,
134,37.218912,-7.441504,"Baesuris, Esuris ","Castro Marim, on R Guadiana, navigable","Strabo, Geogr, 3, 2",,Portugal,a,,,,,,,,,,
134.1,37.206216,-7.327774,,Isla Cristina,,AdG,Spain South,m,p,,,,,,,,,
134.2,37.214239,-7.125718,,El Rompido,,AdG,Spain South,m,p,,,,,,,,,
135,37.254237,-6.963233,"Onuba, Tartessos?",Huelva,"Strabo, Geogr, 3, 2",BAtlas,Spain South,a,,,,,,,,,,
136,37.363020,-6.680405,"Ilipula, Ilipla minor ",Niebla,,BAtlas,Spain South,m,,,,,,,,,,
137,37.308446,-6.255266,Olontigi ,Aznalcazar ?,,BAtlas,Spain South,m,,,,,,,,,,
138,37.290481,-6.054497,Caura ,Coria del Rio,,BAtlas,Spain South,m,,,,,,,,,,
139,37.312853,-6.052992,,Palomares del Rio ,,BAtlas,Spain South,m,,,,,,,,,,
140,37.356791,-6.041858,Osset ,San Juan de Aznalfarache,,BAtlas,Spain South,m,,,,,,,,,,
141,37.392088,-6.039557,,El Carambolo ,,BAtlas,Spain South,m,,,,,,,,,,
142,37.388205,-5.990519,Hispalis ,"Sevilla, on the R Guadalquivir","Strabo, Geogr, 3, 2",,Spain South,a,,,,,,,,,,
143,37.441289,-6.046355,Italica ,Santiponce,,BAtlas,Spain South,m,,,,,,,,,,
144,37.517104,-5.976196,Ilipa magna ,"Alcala del Rio, on the R Guadalquivir","Strabo, Geogr, 3, 2",,Spain South,a,,,,,,,,,,
145,37.274132,-6.004301,Orippo ,"Torre de los Herberos, at Dos Hermanas",,BAtlas,Spain South,m,,,,,,,,,,
146,37.137498,-5.892528,,Maribanez ,,BAtlas,Spain South,m,,,,,,,,,,
147,36.931378,-6.079337,Nabrissa Veneria ,"Lebrija, on the R Guadalquivir ","Strabo, Geogr, 3, 1 & 3.2",,Spain South,a,,,,,,,,,,
148,36.888437,-6.288574,"Conobaria, Colobana ",Las Cabezas de San Juan,,BAtlas,Spain South,m,,,,,,,,,,
149,36.787807,-6.177330,Asta Regia ,"Mesas de Asta, 11 km North of Jerez","Strabo, Geogr, 3, 1 & 3, 2",,Spain South,a,,,,,,,,,,
150,36.783681,-6.366046,"Aipora, Ebora ",near Sanlucar de Barrameda,,BAtlas,Spain South,m,,,,,,,,,,
151,36.737989,-6.442404,"Pirgo Caepino, Tower (ancient lighthouse ?)","Chipiona, on the South bank of the outlet of R Guadalquivir","Strabo, Geogr, 3, 1 ; Mela, Geogr, 3, 1","de la Pena, Christiansen",Spain South,a,,,,,,,,,,
151.1,36.619393,-6.351295,"Astaroth, Speculum Rotae",Rota,,,Spain South,m,,,,,,,,,,
152,36.607668,-6.462312,"Cimbis, Cimbios "," ? near Gadès, perhaps near Rota ?","Livy, Hist, 28, 37",BAtlas,Spain South,a,,,,,,,,,,
153,36.593233,-6.225933,"Portus Menesthei, Portus Menesteus, port of Ménésthée ","probably Puerto Santa Maria, at the outlet of R Guadalete","Strabo, Geogr, 3, 1 ; Ptol, Geogr, 2, 4 ; Marcian, Peripl, 2, 9",BAtlas locates it on the rocks at 2.5 km West of the ancient lighthouse of Caepion,Spain South,a,,,,,,,,,,
154,36.627211,-6.159878,Portus Gaditanus ,"Castillo de Doña Blanca, on the R Guadalete, which moved southwards","Mela, Geogr, 3, 1","Carayon, de la Pena",Spain South,a,,,,,,,,,,
155,36.530112,-6.199803,Chantier naval de Puerto Real ,in the Bay of Cadix,,de la Pena,Spain South,m,,,,,,,,,,
156,36.472302,-6.217409,"Tartessos, Tartessus  , Tarsis ","Isle of Leon at San Fernando ? The R Guadalquivir is called R Baetis by the Romans and R Tartessos by the Phenicians before them. Tartessos is also the name of an ancient tribe who lived in this area of Huelva-Sevilla-Cadix. The ancient city of Tartessos is located with some uncertainty on the present Isle of Leon at San Fernando, South of the bay of Cadix. This island was once detached from the coast. However, Avienus indicates in his Ora Maritima That Tartessus is the ancient name of Gaddir. Pliny the Elder locates Tartessos at Carteia the the Bay of Algesiras (Nat Hist, 3, 3). Some believe it is Huelva.","Herodotus, Hist, 1, 163 & 4, 152 ; Avienus, Ora Maritima ; Bible, Isaïe, 60,9",de la Pena,Spain South,a,,,,,,,,,,
157,36.532133,-6.290083,"Gadir, Gadira, Gadès, Erytheia, Eriteia and its ancient lighthouse","Cadix, ancient canal of Bahia-Caleta. Initially, Gadir was an island as indicated by Strabo who speaks about « the Isle of the gaditans » (Geogr, 3, 2)","Caesar, Guerre d’Espagne, 37 ; Strabo, Geogr, 3, 5 ; Diodorus, Hist, 25 ; Avienus, Ora Maritima ; Scylax, Peripl","Carayon, de la Pena",Spain South,a,,,,,,,,,,
157.1,36.397146,-6.206802,,Sancti-Petri,,AdG,Spain South,m,p,,,,,,,,,
158,36.276535,-6.112723,"Mercablum, Merifabion ",near Conil de la Frontera,,BAtlas,Spain South,m,,,,,,,,,,
159,36.183199,-6.035151,"ancient lighthouse of Promontorium Junonis, Promontory of Juno",Cape Trafalgar,,,Spain South,m,,,,,,,,,,
160,36.190887,-5.914238,"Baesippo, Port Besippon ",Barbate,"Pliny, Hist Nat, 3, 3",,Spain South,a,,,,,,,,,,
161,36.090764,-5.773882,"Baelo Claudia, Belone ","Bolonia, 22 km West of Tarifa","Strabo, Geogr, 3, 1 ; Antonine, Itin Mar","de la Pena, Flemming",Spain South,a,,,,,,,,,,
162,36.070735,-5.689850,"Mellaria, Menlaria ","Valdevaqueros, uncertain location near the estuary of R Valle","Strabo, Geogr, 3, 1",,Spain South,a,,,,,,,,,,
163,36.005795,-5.606277,"Iulia Traducta or Transducta, Iulia Ioza, Tingentera ",Tarifa,"Mela, Geogr, 2, 6",Carayon,Spain South,a,,,,,,,,,,
164,36.090959,-5.438414,Cetaria ,Getares,,BAtlas,Spain South,m,,,,,,,,,,
165,36.127332,-5.443264,Portus Albus ,"Algesiras, on Rio de la Miel",,"de la Pena, CG",Spain South,m,,,,,,,,,,
166,36.183212,-5.410312,"Carteia, Calpe, Karpessos ","Carteya, outlet of R Guadarranque in the bay of Algesiras","Strabo, Geogr, 3, 1 ; Livy, Hist, 28, 30 ; Avienus, Ora Maritima","Carayon, de la Pena, BAtlas, Flemming",Spain South,a,,,,,,,,,,
167,36.193660,-5.421649,,"Cerro del Prado, 2 km upstream of the outlet of R Guadarranque in the bay of Algesiras",,Carayon,Spain South,m,,,,,,,,,,
168,36.286944,-5.286866,"Barbesula, Barbariana ","Casa de Montilla, on the estuary of R Guadiaro",,"Carayon, Flemming",Spain South,m,,,,,,,,,,
169,36.371504,-5.220355,Lacipo ,"Alechipe, near Marina de Casares",,,Spain South,m,,,,,,,,,,
170,36.449093,-5.055696,"Salduba, Saltum ","Torreón, on the estuary of R Guadalmansa",,Carayon,Spain South,m,,,,,,,,,,
171,36.472052,-4.990197,Cilniana ,"Basilica Vega del Mar, at San Pedro de Alcantara",,"Flemming, BAtlas",Spain South,m,,,,,,,,,,
172,36.525691,-4.628938,Suel ,"Cerro del Castillo, on the estuary of R Fuengirola",,"Carayon, Flemming",Spain South,m,,,,,,,,,,
173,36.666785,-4.446886,Cerro del Villar ,estuary of R Guadalorce near the airport of Malaga,,Carayon,Spain South,m,,,,,,,,,,
174,36.707264,-4.425838,Malaga ,estuary of R Guadalmina,"Avienus, Ora Maritima","Carayon, de la Pena, Flemming",Spain South,a,,,,,,,,,,
175,36.736370,-4.114728,"Mainake, Moenace, Maenacé ","Toscanos, 1.5 km upstream the R Velez, near Velez-Malaga","Avienus, Ora Maritima","Carayon, Flemming",Spain South,a,,r,,X,,,,,,
176,36.737579,-4.108717,"Mainake, Moenace, Maenacé ","Cerro del Mar, at the outlet of R Velez,  near Velez-Malaga","Avienus, Ora Maritima","Carayon, Flemming",Spain South,a,,,,,,,,,,
177,36.743022,-4.050901,"Maenoba, Mainobora ","Morro de Mezquitilla and Trayamar, at the outlet of R Algarrobo","Strabo, Geogr, 3, 2","Carayon, Flemming",Spain South,a,,,,,,,,,,
178,36.722487,-3.956340,Caviclum ? ,Faro de Torrox,,BAtlas,Spain South,m,,,,,,,,,,
179,36.726468,-3.691359,"Ex, Sexi, Saxetanum ",Almuñecar,,"Carayon, de la Pena, BAtlas, Flemming",Spain South,m,,,,,,,,,,
180,36.733567,-3.595057,"Selambina, Salmbina ",Salobrena,,BAtlas,Spain South,m,,,,,,,,,,
181,36.740317,-3.014821,"Abdera, Abdara ","Cerro de Montecristo, Adra",,"Carayon, Flemming",Spain South,m,,,,,,,,,,
182,35.948991,-3.032515, Erroris ,"Isle of Alboran, due South of Adra","Antonine, Itin Mar","Flemming, BAtlas locates Error on the Algerian coast West of the Isle of Paloma",Spain South,a,,,,,,,,,,
183,35.942387,-2.909257, Tauria , ?? at 13 km of Alboran,"Antonine, Itin Mar","BAtlas locates Tauria  on the Algerian coast in front of Castra Puerum, Isles of Habibas",Spain South,a,,,,,,,,,,
184,36.744226,-2.593296,Murgi ,"Roquetas de Mar, Laja de palo, Almeria",,Flemming,Spain South,m,,,,,,,,,,
185,36.816541,-2.474547,"Portos Magnos, port of Urci ",Almeria,"Ptol, Geogr, 2, 4","de la Pena, CG, BAtlas",Spain South,a,,,,,,,,,,
186,37.242576,-1.771915,Baria ,"Villaricos, on the estuary of R Almanzora",,"Carayon, Flemming",Spain East,m,,,,,,,,,,
187,37.397447,-1.569544,Longuntica ,near Aguilas,"Livy, Hist, 22, 20",BAtlas,Spain East,a,,,,,,,,,,
188,37.555514,-1.298361,Ficariensis Locus ,near Mazarron,,BAtlas,Spain East,m,,,,,,,,,,
189,37.598972,-0.999357,"Carthagine Spartaria, Cartago Nova, Carthage la neuve ","Carthagena, Mar del Mandarache beneath Mont Altaya","Appian, Ibérique, 4 ; Livy, Hist, 26, 42-43 & 28, 17 ; Polybius, Hist, 10, 2 ; Strabo, Geogr, 3, 4 ; Antonine, Itin Mar","Carayon, de la Pena, Flemming",Spain East,a,,,,,,,,,,
190,37.579740,-0.844278,"Portus Magnus, Onusa ? ",Portman,"Livy, Hist, 22, 20",,Spain East,a,,,,,,,,,,
190.1,37.714517,-0.791534,,Mar Menor,,AdG,Spain East,m,p,,,,,,,,,
191,37.876587,-0.743439,Thiar ,near Torre de la Horadada,,"BAtlas, Flemming",Spain East,m,,,,,,,,,,
192,38.109224,-0.634609,"Herna, port of Rojales ","Guardamar del Segura, on the estuary of R Segura","Avienus, Ora Maritima",Carayon,Spain East,a,,,,,,,,,,
193,38.194863,-0.558975,"Portus Illicitanus, Illici, Ilice, Elia ","Santa Pola, 20 km South of Alicante",,Flemming,Spain East,m,,r,,X,,,,,,
194,38.343121,-0.473925,"Lucentum, Akra Leuke, Castrum Album ",Alicante,,"Carayon, Flemming",Spain East,m,,,,,,,,,,
195,38.525728,-0.132213,Alonae ,Benidorm,,Flemming (BAtlas locates it at Santa Pola),Spain East,m,,,,,,,,,,
196,38.840098,0.128790,Hemeroscopion and Dianium ,Denia,"Strabo, Geogr, 3, 4",de la Pena,Spain East,a,,,,,,,,,,
197,39.148905,-0.231545,Portus Sucrone ,"Cullera, on theestuary of R Jucar",,,Spain East,m,,,,,,,,,,
198,39.424686,-0.291123,Valentia ,Valencia,,"BAtlas, Flemming",Spain East,m,,,,,,,,,,
199,39.634672,-0.239053,"Saguntum, Sagonte ",Grao Vell at Sagunto,,"Lehmann, Flemming",Spain East,m,,rs,X,,,,,,,
200,39.853618,-0.075240,Port of Sebelaci ,"Burriana, port of Onda",,Flemming,Spain East,m,,,,,,,,,,
201,40.073880,0.145405,"Etobesa, Etouissa ? ",near Oropesa del Mar,,BAtlas,Spain East,m,,,,,,,,,,
202,40.413940,0.441742,Indibilis ,near Benicarlo,,BAtlas,Spain East,m,,,,,,,,,,
203,40.470829,0.487544,Adeba ,near Vinaroz,,BAtlas,Spain East,m,,,,,,,,,,
204,40.625486,0.849805,Tenebrius Portus ,outlet of R Ebre,"Ptol, Geogr, 2, 6",,Spain East,a,,,,,,,,,,
205,40.814375,0.521016,Dertosa ,"Tortosa, on R Ebre","Suetonius, Galba,10",,Spain East,a,,,,,,,,,,
206,40.764989,0.862225,,R Ebre navigable over 200 km ,"Pliny, Hist Nat, 3, 4",,Spain East,a,,,,,,,,,,
207,40.804492,0.726888,Tria Capita ,near l’Ampola ?,,BAtlas,Spain East,m,,,,,,,,,,
208,40.896014,0.828452,Sub Saltu ,near Les Tres Cales ?,,BAtlas,Spain East,m,,,,,,,,,,
209,40.981902,0.930664,Oleastrum ,near Hospitalet de l’Infant,,BAtlas,Spain East,m,,,,,,,,,,
210,41.071933,1.188741,"Kissa, Cissis ",near La Pineda,,BAtlas,Spain East,m,,,,,,,,,,
211,41.115232,1.257436,"Taracco, Tarracon ",Tarragona,"Strabo, Geogr, 3, 4 ; Livy, Hist, 22, 19 & 25, 22 ; Avienus, Ora Maritima","Lehmann, de la Pena, Flemming",Spain East,a,,r,,,,,,,,
212,41.380960,2.183205,Barcino ,Barcelona,,"de la Pena, Flemming, RE",Spain East,m,,,,,,,,,,
213,41.424821,2.243912,Baetulo ,Badalona,,"Flemming, BAtlas",Spain East,m,,,,,,,,,,
214,41.518779,2.435229,"Iluro, port d’Ilduro ",near Mataro,,BAtlas,Spain East,m,,,,,,,,,,
215,41.670302,2.795652,Blanda ,Blanes,,"Flemming, BAtlas",Spain East,m,,,,,,,,,,
216,41.718110,2.937827,Turissa ,Tossa de Mar ?,,BAtlas,Spain East,m,,,,,,,,,,
217,41.858999,3.155382,Castell de la Fosca ,near Palamos,,BAtlas,Spain East,m,,,,,,,,,,
218,41.891501,3.195273,Lounarion ,Llafranc,,BAtlas,Spain East,m,,,,,,,,,,
219,42.123368,3.142517,Indike ,L’Escala,,BAtlas,Spain East,m,,,,,,,,,,
220,42.136778,3.121576,"Emporium, Emporia, Cypsela ? ",Sant Marti d’Empuries,"Strabo, Geogr, 3, 4 ; Livy, Hist, 29, 25 & 38, 8 ; Polybius, Hist, 3, 16 ; Avienus, Ora Maritima ; Scylax, Peripl","Lehmann, Flemming",Spain East,a,,r,X,,X,,,,,
221,42.255161,3.170943,"Rhoda, Rhode, Rhodope ",Roses,,Flemming,Spain East,m,,,,,,,,,,
222,42.292361,3.288913,Mont Malodes  ,"Port Lligat near Cadaquès ? Is this Sierra de Montgri ? On the French side, a place called la Tour Madeloc is located above Port Vendres. Shelters South of Cape Creus are poor, excepting Port Lligat where Salvador Dali was living","Avienus, Ora Maritima",,Spain East,a,,,,,,,,,,
223,39.898692,3.515917,Gymnesias ,Gymnesian islands: Mallorca and Minorca,"Diodorus, Hist, 5, 14 ; Livy, Hist, 28, 37 ; Strabo, Geogr, 3, 5 ; Antonine, Itin Mar",,Spain Baleares,a,,,,,,,,,,
224,39.585390,2.998611,"Columba, Balearis Maior ",Isle of Mallorca. Antonin also mentions a  Diana and a Lesbos which are not to be found in the Baleares. There is a Diana near Ostie and of course a  Lesbos in the Aegean,"Antonine, Itin Mar",,Spain Mallorca,a,,,,,,,,,,
225,39.561520,2.645045,Palmeria,Palma de Mallorca ,,"de la Pena, Flemming",Spain Mallorca,m,p,,,,,,,,,
225.1,39.531926,2.587282,,Las Illetas,,AdG,Spain Mallorca,m,p,,,,,,,,,
225.2,39.510636,2.468253,,Puerto de Santa Ponsa,,AdG,Spain Mallorca,m,p,,,,,,,,,
225.3,39.796642,2.693481,,Puerto de Soller,,AdG,Spain Mallorca,m,p,,,,,,,,,
226,39.907278,3.091023,"Buccorum, Bocchori ",Formentor-Pollensa,,"de la Pena, BAtlas",Spain Mallorca,m,,,,,,,,,,
227,39.831777,3.128806,Pollentia ,Alcudia (with possible second port in Bonnaire),,"de la Pena, BAtlas, Flemming",Spain Mallorca,m,,,,,,,,,,
227.1,39.540520,3.336989,,Porto Cristo,,AdG,Spain Mallorca,m,p,,,,,,,,,
227.2,39.419308,3.265063,,Porto Colom,,AdG,Spain Mallorca,m,p,,,,,,,,,
227.3,39.369239,3.224449,,"Puerto de Cala Llonga, Cala d'Or",,AdG,Spain Mallorca,m,p,,,,,,,,,
227.4,39.356874,3.212041,,Porto Petro,,AdG,Spain Mallorca,m,p,,,,,,,,,
228,39.311106,3.001310,"Na Guardis, port of Guium ? ",in front of Colonia Sant Jordi,,Carayon,Spain Mallorca,m,,r,,X,,,,,,
228.1,39.148226,2.933627,,Puerto de Cabrera,,AdG,Spain Cabrera,m,p,,,,,,,,,
228.2,39.362034,2.834320,,Cala Pi,,AdG,Spain Mallorca,m,p,,,,,,,,,
229,39.982937,4.057332,"Nura, Balearis Minor ",Isle of Minorca,"Antonine, Itin Mar",,Spain Minorca,a,,,,,,,,,,
230,39.994698,3.824363,"Yamma, Iamon, Iamna, Iamnona",Ciudadela,,de la Pena,Spain Minorca,m,p,,,,,,,,,
230.1,40.054083,3.883019,,Cala Morell,,AdG,Spain Minorca,m,p,,,,,,,,,
231,40.074481,4.086386,Sanisera ,"Puerto Nitge, Sanitja",,Contreras,Spain Minorca,m,,rs,,,,,,,,
231.1,40.046405,4.130221,,Puerto de Fornells,,AdG,Spain Minorca,m,p,,,,,,,,,
231.2,40.004438,4.199634,,Puerto de Cala de Addaya,,AdG,Spain Minorca,m,p,,,,,,,,,
231.3,39.953126,4.273486,,"Cala Grao, Colom island",,AdG,Spain Minorca,m,p,,,,,,,,,
232,39.887878,4.280101,"Mago, Portus Magonis",Mahon,,"Carayon, de la Pena, Flemming, RE",Spain Minorca,m,p,,,,,,,,,
232.1,39.828192,4.294459,,Cala Alcaufa,,AdG,Spain Minorca,m,p,,,,,,,,,
233,39.860556,4.143743,Cala Coves ,near Cala en Porter,,Carayon,Spain Minorca,m,,,,,,,,,,
234,38.774222,1.331400,"Pityusa, Pytyuse, Pitiusas, Pittecusa ",Pityusic islands: Ibiza and Formentera and Espalmador,"Diodorus, Hist, 5, 13 ; Livy, Hist, 28, 37 ; Scylax, Peripl",,Spain Baleares,a,,,,,,,,,,
235,38.910255,1.439502,"Ebusus, Ebysos ","Ibiza, on the Isle of Ibiza","Livy, Hist, 22, 20 ; Antonine, Itin Mar","Carayon, RE",Spain Ibiza,a,p,,,,,,,,,
236,38.867652,1.343334,,"Sa Caleta, on the SW coast of Ibiza",,Carayon,Spain Ibiza,m,,,,,,,,,,
236.1,38.913538,1.222857,,Cala Badella,,AdG,Spain Ibiza,m,p,,,,,,,,,
236.2,38.967198,1.267691,,Port del Torrent,,AdG,Spain Ibiza,m,p,,,,,,,,,
236.3,39.084369,1.437616,,Puerto de San Miguel,,AdG,Spain Ibiza,m,p,,,,,,,,,
236.4,39.114326,1.518128,,Cala Portinatx,,AdG,Spain Ibiza,m,p,,,,,,,,,
236.5,38.778699,1.425659,Ophioussa,Puerto del Espalmador,,,Spain Formentera,m,p,,,,,,,,,
236.6,38.730422,1.414050,,"Puerto de Sabina, Estanque Peix",,AdG,Spain Formentera,m,p,,,,,,,,,
237,50.768722,1.593818,"Epatiacum, Epatiaci portus ",unlocalized North of Boulogne,,RE,France West,m,,,,,,,,,,
238,50.727455,1.600821,"Port Bononiensis, Bononia, with ancient lighthouses of La Tour d'Ordre and La Tour de Caligula (both eroded away by the sea)",Boulogne,,"Grenier, Christiansen",France West,m,,,,,,,,,,
239,50.715270,1.612595,"Gesoriacum Portus, Portu Gessoriacensi ",Boulogne,"Ptol, Geogr, 2, 9 ; Mela, Geogr, 3, 2 ; Antonine, Itin Mar",Grenier,France West,a,,,,,,,,,,
240,50.707832,1.564579,Portus Paulo Infra,Le Portel,,Grenier,France West,m,,,,,,,,,,
241,50.682302,1.654078,"Port Itius, Port of the Morins",Boulogne: Isques,"Caesar, Guerre des Gaules, 4, 28 & 5, 2 ; Pliny, Hist Nat, 4, 37 ; Strabo, Geogr, 4, 5","Grenier, CG",France West,a,,,,,,,,,,
242,50.513931,1.638006,Portus Aepatiaci ,Etaples,,BAtlas,France West,m,,,,,,,,,,
243,50.446039,1.836752,Lintomagus ,Brimeux,,BAtlas,France West,m,,,,,,,,,,
244,50.021016,1.463850,Catuslovius ,Eu,,Marie-Thérèse and Georges Raepsaet-Charlier,France West,m,,,,,,,,,,
245,49.502576,0.209231,"Port Cruciatonnon, Caracotinum ","Carentan, Harfleur",,Grenier,France West,m,,,,,,,,,,
246,49.513934,0.518772,Port of Juliobana ,Lillebonne,,Grenier,France West,m,,,,,,,,,,
247,49.522662,0.725045,Loium ,Caudebec en Caux,,BAtlas,France West,m,,,,,,,,,,
248,49.104490,-0.398913,Aregenua ,"Vieux, South of Caen",,Grenier,France West,m,,,,,,,,,,
249,49.311130,-1.234087,"Crociatonum, Crouciaconnum ",Carentan,,BAtlas,France West,m,,,,,,,,,,
250,49.682941,-1.598889,"Coriallum, Coriovallum ",Cherbourg,,BAtlas,France West,m,,,,,,,,,,
251,49.713769,-2.195279,Riduna ,"Isle of Alderney, Aurigny","Antonine, Itin Mar",,France West,a,,,,,,,,,,
252,49.455255,-2.574880,Sarmia ,Isle of Guernesey,"Antonine, Itin Mar",,France West,a,,,,,,,,,,
253,49.458796,-2.524054,"Lisia, Lesia ","La Plaiderie at St Peter Port, Guernesey","Antonine, Itin Mar",,France West,a,,,,,,,,,,
254,49.431421,-2.359939, Barsa ,Isle of Sark ?,"Antonine, Itin Mar",,France West,a,,,,,,,,,,
255,49.218157,-2.138954," Caesarea,  Andium ",Isle of Jersey,"Antonine, Itin Mar",,France West,a,,,,,,,,,,
256,49.315391,-1.727755,,Portbail ,,BAtlas,France West,m,,,,,,,,,,
257,48.659636,-1.412533,"Abrincas, Ingena ",Avranches,,BAtlas,France West,m,,,,,,,,,,
258,48.643115,-1.861916,,St Méloir des Ondes ,,BAtlas,France West,m,,,,,,,,,,
259,48.631853,-2.028682,"Reginca, Aletum ",Aleth near St Malo,,BAtlas,France West,m,,,,,,,,,,
260,48.475288,-2.004217,,Taden ,,BAtlas,France West,m,,,,,,,,,,
261,48.631072,-2.481902,,Erquy ,,BAtlas,France West,m,,,,,,,,,,
262,48.545476,-2.711488,,St Brieuc ,,BAtlas,France West,m,,,,,,,,,,
263,48.736145,-3.485788,,Lannion and Ploulec’h ,,BAtlas,France West,m,,,,,,,,,,
264,48.654231,-3.875826,"Port Saliocanus, Staliocane ",in the bay of Morlaix,"Ptol, Geogr, 2, 8",Grenier,France West,a,,,,,,,,,,
265,48.460159,-5.086396," Uxantis, Portus Uxentinus",Isle of Ouessant,"Antonine, Itin Mar",Blackman,France West,a,,rs,,,,,,,,
266,48.334649,-4.493341,"Gesocribate, Osismis ",Brest,,BAtlas,France West,m,,,,,,,,,,
267,48.035135,-4.853890," Sina, Sena ",Isle of Sein,"Antonine, Itin Mar",,France West,a,,,,,,,,,,
268,47.715792,-3.355616,"Port Vindana, Ouidana ",Port Louis near Lorient,"Ptol, Geogr, 2, 8",Grenier,France West,a,,,,,,,,,,
269,47.799419,-3.276143,Blabia ,Hennebont ? on R Blavet,,RE,France West,m,,,,,,,,,,
270,47.322732,-3.185394, Vindilis ,Isle of Belle-Ile,"Antonine, Itin Mar",,France West,a,,,,,,,,,,
271,47.388436,-2.967130, Siata ,Isle of Houat,"Antonine, Itin Mar",,France West,a,,,,,,,,,,
272,47.336393,-2.873298, Arica ,Isle of Hoedic ?,"Antonine, Itin Mar",,France West,a,,,,,,,,,,
273,47.626471,-2.762254,"Darioritum, Benetis ","Vannes, capital city of the Vénètes",,BAtlas,France West,m,,,,,,,,,,
273.1,47.470252,-2.512098,Cassiterides islands,islands now inland at Penestin (?),"Strabo, Geogr, 3, 3-5 ; Pliny, Hist Nat, 4, 36",Gavin de Beer (1960),France West,a,,,,,,,,,,
274,47.288481,-2.481619,"Port Brivates, Blivida ? ",Batz-Trémondet,"Ptol, Geogr, 2, 8","Grenier, RE, CG",France West,a,,,,,,,,,,
275,47.252563,-2.207931,Corbilon ,St Nazaire ?,"Strabo, Geogr, 4, 2",Grenier,France West,a,,,,,,,,,,
276,47.290448,-2.082342,Port des Deux Corbeaux ,on the estuary of R Loire,"Strabo, Geogr, 4, 4",Grenier,France West,a,,,,,,,,,,
277,47.211665,-1.567355,"Portus Namnetum, Port des Namnètes ",Nantes,,CG,France West,m,,,,,,,,,,
278,47.192568,-1.570480,"Ratiatum, port of the Pictons ","Rezé, in front of Nantes",Strabo and Ptol mention the city but not the port,,France West,a,,,,,,,,,,
279,47.108216,-2.109258,Port Sicor ,Le Pornic,"Ptol, Geogr, 2, 8 ; Marcian, Peripl, 2, 21",Grenier,France West,a,,,,,,,,,,
280,46.943573,-2.232076,Port Morinum ,Port de Morin ? on the isle of Noirmoutier,"Polybius, Hist, 34, 7",,France West,a,,,,,,,,,,
281,46.003566,-1.084452,port of the Santons ,Fouras,"Ptol, Geogr, 2, 7",Grenier,France West,a,,,,,,,,,,
282,45.519272,-0.895435,Novioregum ,Barzan,,BAtlas,France West,m,,,,,,,,,,
283,45.123024,-0.670996,"Blauto, Blavia Santorum ",Blaye,,BAtlas,France West,m,,,,,,,,,,
284,44.839745,-0.565279,Burdigala ,"Bordeaux, Porte Navigère, at the outlet of R Devèze, near the Place de la Bourse","Strabo, Geogr, 4, 2 ; Marcian, Peripl, 2, 21",Grenier,France West,a,,,,,,,,,,
285,44.824834,-0.541374,,R Garonne barely navigable ,"Mela, Geogr, 3, 2 ; Marcian, Peripl, 2, 21",,France West,a,,,,,,,,,,
286,43.492880,-1.474326,"Lapurdum, Lapurdunum, Lapurdo, Baiona ",Bayonne,,,France West,m,,,,,,,,,,
287,42.342563,3.195006,Pyrénée  ,"Port de la Selva ? « Le Pyrénée » generally means the oriental extremity of this chain of mountains that literally falls into the sea between Port Vendres in France and Roses in Spain. Its end is Cape Creus. Shelters are few and of bad quality, as they face the East, and the mountain is hostile. The best shelter is Port de la Selva on the Spanish side","Livy, Hist, 34, 8",,France South,a,,,,,,,,,,
288,42.444486,3.173549,Cervaria ,Cerbère,"Mela, Geogr, 2, 5",,France South,a,,,,,,,,,,
289,42.519556,3.108357,Port de Venus ,Port-Vendres,"Mela, Geogr, 2, 5","Flemming, présence d’une épave ",France South,a,p,,,,,,,,,
290,42.606371,3.046006,"Illiberis, Castrum Helenae ",Latour-Bas-Elne near St Cyprien,,Flemming,France South,m,,,,,,,,,,
291,42.708809,2.945258,Ruscino ,Castel Rossello,,Flemming,France South,m,,,,,,,,,,
292,42.883949,3.020076,Leuxos ,Leucate,,Flemming,France South,m,,,,,,,,,,
293,43.163453,2.963676,Narbo-Martius,Narbonne ,"Strabo, Geogr, 4, 1 ; Ausonius, Ordo Urbium, 13 ; Apollinaris, Poésie 23","Lehmann, Flemming, RE, Blackman",France South,a,,r,,X,X,,,,,
294,43.049687,3.041817,"Port de Cauquènes, Kauco ","possibly used only for the quarry on the isle of Sainte Lucie (Narbonne, Etang de Sigean)",,Grenier,France South,m,,r,,X?,,,,,,
295,43.143864,2.998948,,"Lake de Capelles (Narbonne, Etang de Bages)",,"Grenier, Carayon",France South,m,,r,,X?,,,,,,
296,43.141803,3.004629,,"Jetty of La Marseillaise (Narbonne, Etang de Bages)",,"Sanchez, Carayon, Falguera",France South,m,,r,,X,,,,,,
297,43.131376,3.023556,,"Mandirac training walls (Narbonne, Etang de Bages)",,"Sanchez, Carayon",France South,m,,r,X,X,,,,,,
298,43.101765,3.042969,,"Port of Conilhac (Narbonne, Etang de Campignol)",,Grenier,France South,m,,,,,,,,,,
299,43.088708,3.075036,,"St Martin le bas (Narbonne, isle of Saint Martin)",,Falguéra,France South,m,,r,,,,,,,,
300,43.125175,3.104767,,"Le Bouis (Narbonne, near Gruissan)",,Falguéra,France South,m,,r,,,,,,,,
301,43.128234,3.122125,,"Tintaine (Narbonne, near Gruissan)",,Falguéra,France South,m,,r,,X?,,,,,,
302,43.314327,3.468434,Agathe ,"Agde, river port",,Flemming,France South,m,p,,,,,,,,,
303,43.287235,3.513413,Embonne ,Cap d’Agde,,BAtlas,France South,m,,,,,,,,,,
304,43.420773,3.612533,Mesua ,Mèze,,BAtlas,France South,m,,,,,,,,,,
305,43.437020,3.687339,,Balaruc les Bains ,,BAtlas,France South,m,,,,,,,,,,
306,43.397696,3.701904,Setius ,Sète,,Flemming,France South,m,,,,,,,,,,
307,43.513250,3.883501,Magalona ,Maguelone,,BAtlas,France South,m,,,,,,,,,,
308,43.564622,3.907004,"Lattara, Latera and its ancient lighthouse ",Lattes,,"Garcia, Christiansen, Flemming",France South,m,,r,,X,,,,,X,
309,43.436040,4.412601,Saintes-Maries-de-la-Mer (also called Artémis because the saintes in question came from Ephesus where godin Artemis is worshiped),"maritime port of Arles, now submerged offshore",,,France South,m,,,,,,,,,,
310,43.677224,4.621122,"Arelate, Arelas ",Arles,"Caesar, Guerre civile, 2, 5 ; Ausonius, Ordo Urbium, 8 ; Antonine, Itin Mar","Grenier, Flemming",France South,a,,rs,,X,,,,,,
311,43.429372,4.734231,"Gradus Massilitanorum, at about 18 nautical miles from Arelates","outlet of R Rhône, navigable up to Lyon","Antonine, Itin Mar ; Polybius, Hist, 3, 16 ; Ammian, Hist, 15, 11",,France South,a,,,,,,,,,,
312,43.498462,4.824064,"Marius' canal, Fossa Mariana, Fossae Marianae, Fosses Mariannes","Canal connecting Fos to R Rhône, not yet precisely located","Plutarch, Marius, 16 ; Strabo, Geogr, 4, 1 ; Mela, Geogr, 2, 5","Grenier, Lehmann, Flemming, Fontaine (Arkaeos), Vella",France South,a,,rs,X,,,,,,,
312.1,43.424017,4.961254,Statio Fossae Marianae ? Near Stomalimne,"Fos marina, Anse St Gervais near Fos and Étang de l’Estomac","Strabo, Geogr, 4, 1 ; Antonine, Itin Mar","Fontaine (Arkaeos), Vella",France South,a,,rs,X,,,,,,,
313,43.354230,5.023508,Maritima Ciuitas Colonia ,"Martigues, Port des Laurons, submerged breakwater","Ptol, Geogr, 2, 10",,France South,a,,rs,X,,,,,,,
314,43.355750,5.024662,Maritima Ciuitas Colonia ,"Martigues, Port des Laurons, submerged quay","Ptol, Geogr, 2, 10",,France South,a,,rs,,X,,,,,,
315,43.326054,5.045067,Dilis ,near La Couronne Carro ?,"Antonine, Itin Mar",,France South,a,p,,,,,,,,,
316,43.330747,5.107255,,Sausset les Pins,,AdG,France South,m,p,,,,,,,,,
317,43.325969,5.154315,Incaro ,Carry le Rouet,"Antonine, Itin Mar","Flemming, shipwreck",France South,a,,,,,,,,,,
318,43.296262,5.366911,"Massalia Graecorum, Lacydon ","Marseille, Vieux Port, Musée des docks: Dolia warehouse (sh, sl near place Jules Verne)","Caesar, Guerre civile, 1, 36 ; 2, 1 ; Mela, Geogr, 2, 5 ; Strabo, Geogr, 4, 1 ; Scylax, Peripl ; Antonine, Itin Mar","Grenier, Lehmann, CG, Loven",France South,a,,r,,,,,X,X,,
319,43.297625,5.374913,"Massalia Graecorum, Lacydon ","Marseille, Vieux Port, quays of the Corne du port antique","Caesar, Guerre civile, 1, 36 ; 2, 1 ; Mela, Geogr, 2, 5 ; Strabo, Geogr, 4, 1 ; Scylax, Peripl ; Antonine, Itin Mar","Grenier, Lehmann, Flemming, CG, Blackman",France South,a,p,r,,X,,,,,,
320,43.270839,5.302154,,"Calanque de l’Âne, Pomègues (isles of Frioul)",,shipwreck and mooring bits,France South,m,p,r,,,X,,,,,
321,43.235262,5.355211,,Madrague de Montredon ,,shipwreck,France South,m,,,,,,,,,,
322,43.217578,5.343932,"Inmandras, Immandras","Isle of Maïre: Port des Goudes, on the North side of Cap Croisette","Antonine, Itin Mar",,France South,a,p,,,,,,,,,
323,43.211142,5.352380,"Inmandras, Immandras","Isle of Maïre: Callelongue, on the South side of Cap Croisette","Antonine, Itin Mar",,France South,a,,,,,,,,,,
324,43.209560,5.422606,"Aemines, Hemines, Mines ",Sormiou,"Antonine, Itin Mar","BAtlas, Flemming, RE",France South,a,,,,,,,,,,
325,43.205623,5.515599,Portus Milus,Port Miou,,Arnaud 2004,France South,m,p,,,,,,,,,
326,43.214105,5.539015,Carsicis ,Cassis,"Antonine, Itin Mar","Lehmann, Flemming",France South,a,p,r,,X,X,,,,,
327,43.173127,5.607165,"Citharista, Kitharistès, Zao ","La Ciotat, Ceyreste","Pliny, Hist Nat, 3, 5 ; Antonine, Itin Mar","Flemming, RE, CG",France South,a,p,,,,,,,,,
328,43.171103,5.695495,,Les Baumelles (St Cyr on Mer),,BAtlas,France South,m,,,,,,,,,,
329,43.080312,5.799876,"Tauroeis, Taurento, Tauroentum ","Le Brusc, Six Fours","Caesar, Guerres civiles, 2, 4",Flemming,France South,a,,,,,,,,,,
329.1,43.079451,5.781492,,Port St Pierre on Iles des Embiez,,AdG,France South,m,p,,,,,,,,,
329.2,43.082920,5.905755,,Baie du Lazaret,,AdG,France South,m,p,,,,,,,,,
330,43.109297,5.917936,Telone Martio ,Toulon,"Antonine, Itin Mar",Flemming,France South,a,,,,,,,,,,
331,43.078934,6.123224,"Olbia, Pomponiana ",L’Almanarre near Hyères,"Antonine, Itin Mar","Lehmann, Flemming, CG",France South,a,,rs,X,X?,,,,,,
332,43.042709,6.109172,,Madrague de Giens ,,shipwreck,France South,m,,,,,,,,,,
333,43.025491,6.151745,,La Tour Fondue on the peninsula of Giens,,shipwreck,France South,m,,,,,,,,,,
334,43.009730,6.305789,"Stoechadis, Stoechades, Stechades ","Isles of Porquerolles, of Port-Cros, of Levant","Strabo, Geogr, 4, 1 ; Tacitus, Hist, 3, 42 ; Antonine, Itin Mar",,France South,a,,,,,,,,,,
335,43.015313,6.216364,,Pointe of Lequin (Porquerolles),,several shipwrecks,France South,m,,,,,,,,,,
336,43.001770,6.251547,,Pointe de La Galère (Porquerolles),,BAtlas,France South,m,,,,,,,,,,
337,43.013552,6.387402,,Anse de La Palud (Port-Cros),,shipwreck,France South,m,,,,,,,,,,
338,43.095684,6.321810,Pergantion ,beach of Brégançon,,,France South,m,,,,,,,,,,
339,43.147563,6.433578,Alconis ,Cavalière,"Antonine, Itin Mar",,France South,a,,,,,,,,,,
340,43.165496,6.538462,,Pointe du Dattier (Cap Cavalaire),,shipwreck,France South,m,,,,,,,,,,
341,43.174482,6.542382,Heraclia Caccabaria ,"Cavalaire. Plini, Hist Nat, 3, 5 mentions a Héraclée at the outlet of R Rhône, but the pointe Cavalaire is now generally accepted","Antonine, Itin Mar","Lehmann, Flemming, CG",France South,a,,rs,X,,,,,,,
342,43.187285,6.556029,,Villa Pardigon ,,BAtlas,France South,m,,,,,,,,,,
343,43.178553,6.653968,,bay of Bon-Porte (Ramatuelle),,,France South,m,,,,,,,,,,
344,43.228940,6.675349,,bay of Pampelone ,,shipwreck,France South,m,,,,,,,,,,
345,43.273254,6.629807,Athenopolis ,St Tropez,,BAtlas,France South,m,,,,,,,,,,
346,43.272286,6.594116,Sinus Sambracitanus plagia ,beach of the Golfe de St Tropez,"Antonine, Itin Mar",,France South,a,,,,,,,,,,
347,43.429607,6.743924,"Forum Julii, Forum Julium, with four lighthouses: the Lanterne d'Auguste, the Butte St Antoine, the Monument aux Tritons and the Lion de Mer islet in front of St Raphaël",Fréjus,"Strabo, Geogr, 4, 1 ; Tacitus, Hist, 3, 42","Grenier, Lehmann, Flemming, Blackman, Christiansen",France South,a,,r,,X,,X,,,X,
348,43.422284,6.864040,"Portus Oxybiorum, Oxybius ","Agay, East of St Raphaël","Strabo, Geogr, 4, 1",CG,France South,a,,,,,,,,,,
349,43.522853,7.037330,"Lero, with ancient lighthouse",Isle of Ste Marguerite in the isles of Lérins with ancient lighthouse of la Tour Ste Anne at the NW end of the island,"Antonine, Itin Mar","Flemming, Christiansen",France South,a,,r,,,,,,,X,
350,43.509699,7.044936,Lerina ,Isle of St Honorat in the isles of Lérins,"Antonine, Itin Mar",,France South,a,,,,,,,,,,
351,43.571137,7.091848,,"Bas-Lauvert, probable export site of Garum (Antibes les Pins)",,Morena,France South,m,,,,,,,,,,
352,43.555293,7.136326,,"Plage de La Garoupe, probable shelter (Cap d’Antibes)",,Morena,France South,m,,,,,,,,,,
353,43.589336,7.124543,Antipolis ,"Antibes, in the Anse Saint Roch near the Fort Carré. The entrance to the ancient port was near the peninsula of the Fort Carré.","Antonine, Itin Mar","Morena, Flemming",France South,a,,rs,,X,,,,,,
354,43.621713,7.127519,,"Etang de Vaugrenier, possible ancient port",,Morena,France South,m,,,,,,,,,,
355,43.690563,7.269291,Nicia plagia ,beach of Nice,"Antonine, Itin Mar",Flemming,France South,a,,,,,,,,,,
356,43.699120,7.315785,Olivula Portus ,Villefranche,"Antonine, Itin Mar",Flemming,France South,a,,,,,,,,,,
357,43.699295,7.336753,Anaone ,Beaulieu sur Mer,"Antonine, Itin Mar",,France South,a,,,,,,,,,,
358,43.717484,7.363701,"Avisione, Avisio ",Eze,"Antonine, Itin Mar",RE,France South,a,,,,,,,,,,
359,43.734590,7.432848,"Hercle Manico, Port Heraclès, Portus Herculis Monoeci, Port d’Hercules Monoecus, Monoecus, Monoeque ","Monaco. Unlike other authors, Ptolemy distinguishes « Herculis Portus » and « Monoeci Portus » East of Nice, and puts around 35 km between both of them","Tacitus, Hist, 3, 42 ; Pliny, Hist Nat, 3, 7 ; Strabo, Geogr, 4, 6 ; Ptol, Geogr, 3, 1  ; Antonine, Itin Mar","Flemming, CG",France South,a,,,,,,,,,,
360,42.369042,9.155490,"Cyrne, Crinis, Kurnos, Korsika ","Isle of Corsica, Corse","Diodorus, Hist, 5, 11 ; Livy, Hist, 30, 39 ; Scylax, Peripl ; Antonine, Itin Mar",,France Corsica,a,,,,,,,,,,
361,42.962638,9.453749,Macinaggio ,at the outlet of R Gioielli,,,France Corsica,m,,,,,,,,,,
362,42.772350,9.475618,Klounion ,near Erbalunga,,BAtlas,France Corsica,m,,,,,,,,,,
363,42.693105,9.455933,"Mantinon, Porto Cardo ",Bastia,,,France Corsica,m,p,,,,,,,,,
364,42.577574,9.497335,Mariana ,"La Marana, near Lucciana, Marais de Tanghiccia, at the outlet of R Golo",,,France Corsica,m,,,,,,,,,,
365,42.450081,9.544660,Folleli ,"at the Genoese tower of San Pellegrino, this might be Ptolemy' Niceae",,,France Corsica,m,,,,,,,,,,
366,42.204886,9.559804,Toutelas Bomos ,near la Marine de Bravone,,BAtlas,France Corsica,m,,,,,,,,,,
367,42.139877,9.549522,"Diana portus, Port d’Artemis/Diane ",Etang de Diana at the outlet of R Tavignano,"Ptol, Geogr, 3, 2",,France Corsica,a,,,,,,,,,,
368,42.100874,9.553466,"Alalia, Valeria ",Aléria,,Lehmann,France Corsica,m,,rs,X,X,,,,,,
369,41.775111,9.400479,"Portus Favonus, Port Philonios ",Creek de Favona at Conca,"Ptol, Geogr, 3, 2",Flemming,France Corsica,a,,,,,,,,,,
370,41.590898,9.289219,Portus Syracusanus ,Porto-Vecchio,"Ptol, Geogr, 3, 2",BAtlas,France Corsica,a,p,,,,,,,,,
371,41.467655,9.276966,Rhoubra ,near La Rondinara,,BAtlas,France Corsica,m,,,,,,,,,,
372,41.370052,9.222774,Petit Sperone ,"beach of Piantarella, in front of the Lavezzi islands",,BAtlas,France Corsica,m,,,,,,,,,,
373,41.368667,9.261093,,Cavallo island,,,France Corsica,m,,,,,,,,,,
374,41.388288,9.163435,Pallas ,Bonifacio,,BAtlas,France Corsica,m,p,,,,,,,,,
375,41.394235,9.123549,Marianon ,Roccapina,,BAtlas,France Corsica,m,,,,,,,,,,
376,41.474146,9.075220,Phikaria ,Figari,,BAtlas,France Corsica,m,p,,,,,,,,,
377,41.544237,8.851040,Titianus Portus ,Tizzano,"Ptol, Geogr, 3, 2","CG, BAtlas",France Corsica,a,,,,,,,,,,
377.1,41.678516,8.902447,,Propriano,,,France Corsica,m,,,,,,,,,,
378,41.704970,8.801601,Pauka ,near Porto Pollo,,BAtlas,France Corsica,m,,,,,,,,,,
379,41.919715,8.746518,Agiation ,Ajaccio,,BAtlas,France Corsica,m,,,,,,,,,,
380,42.047615,8.735800,Ourkinion ,"bay of Liscia, near Sari d’Orcino",,BAtlas,France Corsica,m,,,,,,,,,,
381,42.109704,8.690815,Saone ,"Sagone, on R Sagone",,BAtlas,France Corsica,m,,,,,,,,,,
381.1,42.266501,8.693291,,Porto,,AdG,France Corsica,m,p,,,,,,,,,
381.2,42.414861,8.647912,Calaris,Galeria,,,France Corsica,m,,,,,,,,,,
381.3,42.562327,8.762174,Caesiae,Calvi,,,France Corsica,m,,,,,,,,,,
381.4,42.638580,8.939249,"Agilla, Rubico Rocega",L'Ile-Rousse,,,France Corsica,m,,,,,,,,,,
381.5,42.677419,9.296284,"Nebbio, Cersunum",St Florent,,,France Corsica,m,,,,,,,,,,
382,42.808267,9.329736,Kanelate ,Marine d’Albo ? near Canelle,,BAtlas,France Corsica,m,,,,,,,,,,
383,42.966684,9.344882,Kentourinon ,near Centuri,,BAtlas,France Corsica,m,,,,,,,,,,
384,40.307796,9.111677,Sardinia,"Isle of Sardinia, Sardaigne ","Diodorus, Hist, 5, 12 ; Livy, Hist, 30, 39 ; Polybius, Hist, 2, 6 ; Antonine, Itin Mar",,Italy Sardinia,a,,,,,,,,,,
385,40.923636,9.507322,Olblianus,Olbia,"Ptol, Geogr, 3, 3","Carayon, Flemming",Italy Sardinia,a,p,r,X,X,,,,,,
386,40.784988,9.675812,Coclearia ,near San Teodoro,,BAtlas,Italy Sardinia,m,,,,,,,,,,
387,40.639368,9.722893,"Pheronia, Feronia ",Posada ?,,"CG, BAtlas",Italy Sardinia,m,,,,,,,,,,
388,40.616236,9.751357,Portus Liquidonis,San Giovanni di Posada,,"CG, BAtlas",Italy Sardinia,m,,,,,,,,,,
389,void,void,void,void,void,void,void,,,,,,,,,,,
390,39.912462,9.706108,"Sulcis, Sulpicius, Supicius ",Arbatax,"Ptol, Geogr, 3, 4",BAtlas,Italy Sardinia,a,p,,,,,,,,,
391,39.833966,9.686434,Custodia Rubriensis ,Roman fort near Bari Sardo,,BAtlas,Italy Sardinia,m,,,,,,,,,,
392,39.694379,9.664134,Saralapis ,"San Giovanni di Saralat, Foxi Manna",,Carayon,Italy Sardinia,m,,r,,X?,,,,,,
393,39.666510,9.657261,Saralapis ,"San Giovanni di Saralat, Foxi Murdegu",,Carayon,Italy Sardinia,m,,r,X,,,,,,,
394,39.425626,9.631611,"Sarcapos, Sarpach ",Santa Maria di Villaputzu,,Carayon,Italy Sardinia,m,p,,,,,,,,,
395,39.112515,9.535224,,Capo Carbonara ,,Carayon,Italy Sardinia,m,,,,,,,,,,
396,39.211683,9.112387,"Caralis, Carales, ",Cagliari,"Caesar, Guerre d’Afrique, 98 ; Procopius, Guerre Vandales, 1, 24 ; Livy, Hist, 30, 39 ; Antonine, Itin Mar","Carayon, Lehmann, Flemming",Italy Sardinia,a,p,r,,X?,,,,,,
397,38.987048,9.014440,Nora ,"Capo di Pula, Creek of San Efisio",,"Carayon, Lehmann, Flemming",Italy Sardinia,m,,r,,X,,,,,,
398,38.984715,9.012555,Nora ,"Capo di Pula, Cala di Nora",,"Carayon, Lehmann, Flemming",Italy Sardinia,m,,rs,X,,,,,,,
399,38.988036,9.012066,Nora ,Lagoon of San Efisio,,"Carayon, Lehmann, Flemming",Italy Sardinia,m,,,,,,,,,,
400,38.898708,8.896320,"Bitia, Bithia, Bioea ",near the lake of Chia,"Ptol, Geogr, 3, 3","Carayon, Flemming, RE",Italy Sardinia,a,,,,,,,,,,
401,38.898734,8.803097,Port Hercules ,Porto Malfatano,"Ptol, Geogr, 3, 3",Carayon,Italy Sardinia,a,,rs,X,X,,,,,,
402,38.887868,8.803355,Port Hercules ,"Porto Malfatano, submerged breakwater on NE side of Capo Malfatano",,,Italy Sardinia,m,,rs,X,,,,,,,
403,38.922231,8.728146,Tegula ,Porto Teulada,,"Carayon, Flemming",Italy Sardinia,m,p,,,,,,,,,
404,38.932988,8.614564,Sulcitanus Portus ,"bay of Porto Pino, quarry of Guardia s'Arena",,Carayon,Italy Sardinia,m,,r,X,,,X,,,,
405,38.963151,8.602078,Sulcitanus Portus ,"Porto Pino, access canal to the lagoon of Baiocca",,Carayon,Italy Sardinia,m,,r,,,,X,,,,
406,39.011823,8.593479,Sulcitanus Portus ,South end of the lagoon of Baiocca,,Carayon,Italy Sardinia,m,,r,,X,,,,,,
407,39.065340,8.462004,"Sulcis, Solci ",San Antioco,"Ptol, Geogr, 3, 3","Carayon, Flemming",Italy Sardinia,a,p,r,,X,,,,,,
408,39.140566,8.321367,Enosim ,"Carloforte, on the isle of San Pietro",,Carayon,Italy Sardinia,m,p,,,,,,,,,
409,39.698368,8.544767,Neapolis ,Santa Maria di Nabui,,"Lehmann, Flemming",Italy Sardinia,m,,r,,X,,,,,,
410,39.872873,8.606238,"Othaia, Othoca ",Santa Giusta,,Carayon,Italy Sardinia,m,,,,,,,,,,
411,39.877343,8.442608,"Tarrai, Tharros, Tarrhos","San Giovanni di Sinis, Porto Vecchio",,"Carayon, Lehmann, Flemming",Italy Sardinia,m,,rs,,X?,,,,,,
412,39.859288,8.437959,"Tarrai, Tharros ","San Giovanni di Sinis, La Caletta",,"Carayon, Lehmann, Flemming",Italy Sardinia,m,,rs,X,,,,,,,
413,40.087832,8.490364,"Cornus, Coracodes ",S’Archittu,"Ptol, Geogr, 3, 3",Carayon,Italy Sardinia,a,,,,,,,,,,
414,40.102409,8.488802,"Cornus, Coracodes ",Santa Caterina di Pitinnuri,"Ptol, Geogr, 3, 3","Carayon, Flemming",Italy Sardinia,a,,,,,,,,,,
415,40.284535,8.469417,Bosa ,Bosa Marina (outlet of R Temo ?),,Carayon,Italy Sardinia,m,,,,,,,,,,
416,40.569916,8.306281,"Carbia, Garbia ",Alghero,,"Flemming, BAtlas",Italy Sardinia,m,,,,,,,,,,
417,40.596423,8.214801,Nymphaeus Portus ,"Porto Conte, near Alghero","Ptol, Geogr, 3, 3",,Italy Sardinia,a,,,,,,,,,,
418,40.682966,8.197850,Nure ,Porto Ferro,,BAtlas,Italy Sardinia,m,,,,,,,,,,
418.1,40.938117,8.225224,,Stintino,,AdG,Italy Sardinia,m,p,,,,,,,,,
419,40.850551,8.403981,Turris Libyssonis ,Porto Torres,,"Lehmann, BAtlas, Flemming",Italy Sardinia,m,p,rs,X,,,,,,,
420,40.916939,8.706077,Portus Tibulae ,Castelsardo,,"Flemming, BAtlas",Italy Sardinia,m,,,,,,,,,,
421,41.129461,9.060096,Viniolis ,Vignola,,"Flemming, BAtlas",Italy Sardinia,m,,,,,,,,,,
422,41.237221,9.195259,Tibula ?,"Porto Longone, at Santa Teresa Gallura",,BAtlas,Italy Sardinia,m,p,,,,,,,,,
423,41.199135,9.275693,"Lamos, port of the Lestrygons and stopover of Odysseus ",Porto Pozzo,"Homer, Odyssey, 10, 80",Cuisenier,Italy Sardinia,a,,,,,,,,,,
423.1,41.212045,9.404022,,"Cala Gavetta, on Isla La Maddalena",,AdG,Italy Sardinia,m,p,,,,,,,,,
423.2,41.125616,9.470911,,Cala Bitta,,AdG,Italy Sardinia,m,p,,,,,,,,,
423.3,41.135830,9.495848,,Poltu Quatu,,AdG,Italy Sardinia,m,p,,,,,,,,,
423.4,41.133359,9.536260,,Porto Vecchio of Porto Cervo,,AdG,Italy Sardinia,m,p,,,,,,,,,
423.5,41.016495,9.523114,,Bay of Cugnana-Portisco,,AdG,Italy Sardinia,m,p,,,,,,,,,
423.6,41.029277,9.546367,,Porto Rotondo,,AdG,Italy Sardinia,m,p,,,,,,,,,
424,43.786619,7.601546,"Vintimilio plagia, Album Intermilium, Albintimilium",beach of Vintimiglia,"Antonine, Itin Mar","Lehmann, Flemming",Italy West,a,,r,,,X,,,,,
425,43.830374,7.869096,"Costa Balenae, at the outlet of R Tavia ","Riva Ligure, on the R Taggia","Antonine, Itin Mar",BAtlas,Italy West,a,,,,,,,,,,
426,43.880550,8.032857,"Portus Mauritii, Portu Maurici ",Imperia,"Antonine, Itin Mar",CG,Italy West,a,,,,,,,,,,
427,43.902483,8.084362,Lucus Bormanni ,Diano Marina,,Flemming,Italy West,m,p,,,,,,,,,
428,44.035804,8.225654,"Albingauno, Albenganum ",Albenga,"Antonine, Itin Mar","Lehmann, Flemming",Italy West,a,,,,,,,,,,
429,44.238712,8.443866,"Vadis Savadis, Vadum Sabatium, and its ancient lighthouse on Bergeggi island","Vado Ligure, isola di Bergeggi","Pliny, Hist Nat, 3, 7 ; Antonine, Itin Mar",Christiansen,Italy West,a,,r,,,,,,,X,
430,44.296439,8.479161,"Savo, Vicus Virginis ? ",Savona,,BAtlas,Italy West,m,p,,,,,,,,,
431,44.325395,8.510096,Alba Docilia ,Albissola,,"Lehmann, Flemming",Italy West,m,,r,,,X,,,,,
432,44.377370,8.633105,Ad Navalia ,near Cogoleto,,BAtlas,Italy West,m,,,,,,,,,,
433,44.422373,8.744872,Hasta ,near Crevari,,BAtlas,Italy West,m,,,,,,,,,,
434,44.395427,8.867501,Sestri Ponente ,Sestri Ponente,,Lehmann,Italy West,m,,rs,X,,X,,,,,
435,44.411226,8.926382,Genua ,"Genoa, Marina Porto Antico, near Palazzo San Giorgio","Procopius, Guerre Goths, 2, 12 ; Antonine, Itin Mar","Lehmann, Flemming",Italy West,a,p,r,X,,,,,,,
436,44.358043,9.140469,Ricina ,near Recco,,"Flemming, BAtlas",Italy West,m,,,,,,,,,,
437,44.347598,9.152445,Delphinis ,near Camogli,,BAtlas,Italy West,m,,,,,,,,,,
438,44.302575,9.211589,"Portu Delphini, Port du Dauphin ",Portofino,"Pliny, Hist Nat, 3, 7 ; Antonine, Itin Mar","Flemming, CG",Italy West,a,,,,,,,,,,
439,44.309698,9.310881,Ad Solaria ,Chiavari,,BAtlas,Italy West,m,,,,,,,,,,
440,44.299149,9.338812,Tegulata ,Lavagna,,BAtlas,Italy West,m,p,,,,,,,,,
441,44.273009,9.389291,"Segesta, Tigulliorum ",Sestri Levante,"Antonine, Itin Mar",Flemming,Italy West,a,,,,,,,,,,
442,44.234533,9.484384,Ad Monilia ,Moneglia,,"Flemming, BAtlas",Italy West,m,,,,,,,,,,
443,44.202859,9.546199,Antion ,Framura,,BAtlas,Italy West,m,,,,,,,,,,
444,44.050289,9.838400,Portus Veneris ,"Portovenere, La Spezia","Ptol, Geogr, 3, 1 ; Antonine, Itin Mar","Flemming, CG",Italy West,a,p,,,,,,,,,
445,44.077808,9.904603,"Portus Ericis, Pullion ","Lerici, Pugliola","Ptol, Geogr, 3, 1",BAtlas,Italy West,a,,,,,,,,,,
446,44.061206,9.972470,,"Ameglia, on the R Magra",,BAtlas,Italy West,m,p,,,,,,,,,
447,44.063689,10.017092,"Lune, Luna, Séléné ","Luni Antica, near Ortonovo on the R Magra","Livy, Hist, 39, 32 ; Pliny, Hist Nat, 3, 8 ; Strabo, Geogr, 5, 2 ; Antonine, Itin Mar","CG, Flemming",Italy West,a,,r,X,,,,,,,
448,43.998373,10.099174,Taberna Frigida ,Massa,,BAtlas,Italy West,m,,,,,,,,,,
449,43.715778,10.398632,"port of Pise, Pisa",difficult access via R Arno and R Auser. ,"Strabo, Geogr, 5, 2","Lehmann, Flemming",Italy West,a,,,,,,,,,,
450,43.573497,10.292628,"Triturrita, Portus Pisanus, Liburnus Portus, Portus Herculis Liburni ","Livorno. This port was accepted as the port of Pisa. R Arno possibly had an outlet further South than today, quite close to Livorno which is at around 11 km of the present outlet of R Arno.","Tacitus, Hist, 3, 42 ; Polybius, Hist, 2, 6 ; Ptol, Geogr, 3, 1 ; Rutilius, Reditu, 1, 527 & 2, 11 ; Antonine, Itin Mar",CG,Italy West,a,p,,,,,,,,,
451,43.397870,10.416492,,Castiglioncello ,,BAtlas,Italy West,m,,,,,,,,,,
452,43.347161,10.444834,"Vadis, Vada Volaterrana ",Vada,"Antonine, Itin Mar","Lehmann, Flemming",Italy West,a,,,,,,,,,,
452.1,43.050537,9.838895,,Isle of Capraia,,,Italy West,m,p,,,,,,,,,
453,42.991975,10.505525,"Polulonio, Poplonium",Populonia,"Strabo, Geogr, 5, 2 ; Livy, Hist, 30, 39 ; Rutilius, Reditu, 1, 401 ; Antonine, Itin Mar","Lehmann, Flemming, Blackman",Italy West,a,,,,,,,,,,
454,42.934297,10.559041,"Falesia, Porto Falese ",Piombino,"Antonine, Itin Mar",CG,Italy West,a,,,,,,,,,,
455,42.916641,10.757334,Scabris ,near Follonica,"Antonine, Itin Mar",CG,Italy West,a,,,,,,,,,,
456,42.889626,10.779910,R Alma ,Puntone Vecchio,"Antonine, Itin Mar",BAtlas,Italy West,a,,,,,,,,,,
457,42.770152,10.273798,"Ilva, Aithalia, Ethalie ",Isle of Elba,"Diodorus, Hist, 5, 10 ; Livy, Hist, 30, 39 ; Apollonius, Argonauticas, 4, 658 ; Scylax, Peripl ; Antonine, Itin Mar",,Italy West,a,,,,,,,,,,
458,42.813066,10.329861,"Argôus Portus, Argoos, ","Portoferraio, on the isle of Elba","Strabo, Geogr, 5, 2 ; Apollonius, Argonauticas, 4, 658","CG, Flemming",Italy West,a,p,,,,,,,,,
458.1,42.806320,10.314434,,"Edilnautica marina, on the isle of Elba",,AdG,Italy West,m,p,,,,,,,,,
459,42.762374,10.397004,Portus Longus ,"Porto Longone, Porto Azzurro, on the isle of Elba",,CG,Italy West,m,p,,,,,,,,,
460,42.582969,10.082156, Planasia ,"Isle of Pianosa, near the isle of Elba","Antonine, Itin Mar",Flemming,Italy West,a,,,,,,,,,,
461,42.809440,10.748622,Portus Traianus ,"Punta Ala, in front of the isle of Elba","Ptol, Geogr, 3, 1",CG,Italy West,a,,,,,,,,,,
462,42.757147,10.873886,"Lacus Prilius, Lacu Aprile, Salebro ? ",Castiglione della Pescaia,"Antonine, Itin Mar",BAtlas,Italy West,a,p,,,,,,,,,
463,42.647958,11.007141,"R Umbronis, outlet of R Ombro ",R Ombrone at around 15 km North of Talamone,"Rutilius, Reditu, 1, 337 ; Antonine, Itin Mar",,Italy West,a,,,,,,,,,,
464,42.558556,11.152551,"Talamonis, Telamon ",Talamone,"Pliny, Hist Nat, 3, 8 ; Plutarch, Marius, 44 ; Antonine, Itin Mar","Lehmann, Flemming",Italy West,a,,r,,,X?,,,,,
465,42.499051,11.187206,R Alminia,Albinia on R Albegna,"Antonine, Itin Mar",,Italy West,a,,,,,,,,,,
466,42.440694,11.116772,"Domitiana, Portus Domitianus ","San Stefano, on the peninsula of Argentario","Antonine, Itin Mar",Flemming,Italy West,a,,,,,,,,,,
467,42.414901,11.088476,Incitaria ,"Cala del Gesso, on the peninsula of Argentario","Antonine, Itin Mar",,Italy West,a,,,,,,,,,,
468,42.355969,10.929409,Igilium ,Isle of Giglio,"Rutilius, Reditu, 1, 325 ; Antonine, Itin Mar",Flemming,Italy West,a,,,,,,,,,,
469,42.394179,11.213979,"Portu Herculis, Port of Hercules","Porto Ercole, on the peninsula of Argentario","Strabo, Geogr, 5, 2 ; Rutilius, Reditu, 1, 293 ; Antonine, Itin Mar",Flemming,Italy West,a,,,,,,,,,,
470,42.254936,11.094568,Dianium ,"Cala Maestra, on the isle of Giannutri",,"Flemming, BAtlas, Blackman",Italy West,m,,rs,,,,,,,,
471,42.405809,11.293502,"Cosa, Cossae, Portus Herculis Cosanus ","Ansedonia, Ortebello","Virgil, Enéïde, 10, 163 ; Strabo, Geogr, 5, 2 ; Livy, Hist, 22, 11 & 30, 39 ; Antonine, Itin Mar","CG, Flemming, Blackman, Franco",Italy West,a,,rs,X,X,,X,,,,
472,42.369491,11.440513,Loretum , ? near Cosa,"Livy, Hist, 30, 39",,Italy West,a,,,,,,,,,,
473,42.320667,11.567566,R Arnine,Montalto Marina on R Fiora,"Antonine, Itin Mar",,Italy West,a,,,,,,,,,,
474,42.305584,11.601046,"Regis, Regae ","Le Murelle, near Montalto","Antonine, Itin Mar",,Italy West,a,,,,,,,,,,
475,42.266056,11.653930,Quintiano ,near Riva dei Tarquini,"Antonine, Itin Mar",BAtlas,Italy West,a,,,,,,,,,,
476,42.241889,11.677735,"Martanum, Maltano ",R Marta near Marina Velca,"Antonine, Itin Mar","Lehmann, BAtlas",Italy West,a,,r,,X,,,,,,
477,42.214502,11.701950,"Gravisca, Porto Clementino ",port of Tarquinia,"Virgil, Enéïde, 10, 163 ; Antonine, Itin Mar",Flemming,Italy West,a,,,,,,,,,,
478,42.170600,11.734683,Rapinio ,near Torre San Agostino,"Antonine, Itin Mar",Flemming,Italy West,a,,,,,,,,,,
479,42.117986,11.761553,Alga ,near Scaglia,"Antonine, Itin Mar",,Italy West,a,,,,,,,,,,
480,42.095064,11.787807,"Centumcellae, Palace of the Hundred Chambres. It is the translator of Pliny the Younger who calls it like this, but the « hundred chambres » could also mean the numerous caves in this area, rather than a palace","Civitavecchia, and its Torre del Lazzaretto and its Torre del Bicchiere","PlinyYoung, Lettres, 6, 31 ; Rutilius, Reditu, 1, 238 ; Antonine, Itin Mar","Lehmann, Flemming, Blackman, Christiansen",Italy West,a,p,r,X,,,,,,X,
481,42.035033,11.829041,"Castro Novo (port of Caere, Coeré, Agylla)",Santa Marinella West,"Strabo, Geogr, 5, 2 ; Antonine, Itin Mar","BAtlas, Flemming",Italy West,a,,,,,,,,,,
482,42.032872,11.878095,"Panapione, Punicum ",Santa Marinella East,"Antonine, Itin Mar","Lehmann, BAtlas",Italy West,a,,rs,X,,,,,,,
483,42.034072,11.910572,,Grottacce ,,BAtlas,Italy West,m,,,,,,,,,,
484,42.015665,11.956172,"Pyrgoi, Pyrgi (port of Agylle, Caere, also called The Towers)",Santa Severa,"Virgil, Enéïde, 10, 163 ; Diodorus, Hist, 15, 14 ; Antonine, Itin Mar","Lehmann, Flemming, Blackman, Franco",Italy West,a,,rs,X,,,,,,,
485,41.946416,12.071295,,Ladispoli ,,BAtlas,Italy West,m,,,,,,,,,,
486,41.931308,12.099300,"Alsium (port of Agylle, Caeré, Coeré)",Palo,"Strabo, Geogr, 5, 2","Lehmann, Flemming",Italy West,a,,rs,X,X,,,,,,
487,41.926300,12.119069,,Marina di San Nicola ,,BAtlas,Italy West,m,,,,,,,,,,
488,41.917687,12.133903,,Torre di Palidoro ,,BAtlas,Italy West,m,,,,,,,,,,
489,41.853058,12.183410,Fregenae ,Fregene,,"BAtlas, Flemming",Italy West,m,,,,,,,,,,
490,41.786727,12.250672,"Portus Augusti, Portus Claudius, Port Claude and its ancient lighthouse of Tyrrhène",near the airport of Fiumicino,"Tacitus, Annales, 15, 18 ; Suetonius, Claude, 20 ; Pliny, Hist Nat, 16, 76 & 36,14 ; Dio Cassius, Hist, 60, 11 ; Juvenal, Satires, 12, 50 ; Apuleius, Ane d’Or, 11, 26 ; Ammian, Hist, 19, 10 ; Cassiodorus, De l’Âme, 2 ; Procopius, Guerre Goths, 1, 26 & 3, 15 ; Antonine, Itin Mar","Lehmann, CG, Flemming, Keay, Blackman, Christiansen",Italy West,a,p,r,X,,X,,,,X,
491,41.779943,12.262604,Portus Trajanus  ,"near the airport of Fiumicino. The harbour basin is on the Sforza property and its water level was raised 3 m in the early 20th century, this hides and protects all ancient structures, except warehouses","PlinyYoung, Panégyrique, 29","Keay, Blackman, Christiansen",Italy West,a,,r,,X,X,,,X,X,
492,41.775798,12.234705,ancient lighthouse of Tyrrhène of Portus Claudius,supposed location of the ancient lighthouse of Portus Claudius,"Juvenal, Satires, 12, 50","Arnoldus, Keay, Christiansen",Italy West,a,,r,,,,,,,X,
493,41.753430,12.279848,"Ostia, with possible lighthouse at Tor Boacciana","Ostia. It may be noted that Denys is more positive on the use of this port than Strabo, although they both lived in the same period","Dionysius, Antiquités, 3, 14 ; Strabo, Geogr, 5, 3 ; Suetonius, Néron, 16 ; Ptol, Geogr, 3, 1 ; Procopius, Guerre Goths, 1, 26 ; Rutilius, Reditu, 1, 179 ; Livy, Hist, 22, 11","Lehmann, Flemming, Goiran, Christiansen",Italy West,a,p,r,X,,,,,,,
494,41.781193,12.279485,,"Stella-Buoi, on the R Tibre, immediatly East of Portus Trajanus",,,Italy West,m,,,,,,,,,,
495,41.883078,12.474048,Porta Portese,"Porta Portese, in rive droite of Tibre near Ponte Sublico",,,Italy West,m,,,,,,,,,,
496,41.882192,12.474903,Porticus Aemilia,"Porticus Aemilia, emporium on left bank of R Tibre near Ponte Sublico",,,Italy West,m,,,,,,,,,,
497,41.887793,12.480028,Portus Vicus Alexandri,"Portus Vicus Alexandri, on left bank of R Tibre, near Circo Massimo ","Ammian, Hist, 17, 4",,Italy West,a,,,,,,,,,,
498,41.891439,12.475474,Portus Tiberinus ,"on R Tibre near Ponte Garibaldi, isle of Tiberina","Varro, langue latine, 6, 19 ; Plutarch, Caton, 39 ; Livy, Hist, 40, 51",,Italy West,a,,,,,,,,,,
499,41.902821,12.472668,,Navale on R Tibre near Campo Marzio ,"Livy, Hist, 45, 42",,Italy West,a,,,,,,,,,,
500,41.665940,12.378664,Vicus Augustanus Laurentium ? ,near Infernetto,,BAtlas,Italy West,m,,,,,,,,,,
501,41.710864,12.703192,Lake Albano and Lake Nemi (Caligula's Naumachies),Two lakes SW of Rome,,,Italy West,m,,,,,,,,,,
502,41.745241,12.668608,"Lavinium, Laurentum ",,"Dionysius, Antiquités, 1, 54",Flemming,Italy West,a,,,,,,,,,,
503,41.993758,13.546380,Lake Fucin (Claudius' Naumachies),"Valley of Avezzano, now dried out","Tacitus, Annales, 12, 56",,Italy West,a,,,,,,,,,,
504,41.485462,12.585268,,Torre Caldara ,,BAtlas,Italy West,m,,,,,,,,,,
505,41.442702,12.628393,"Antium, Nero's port",Anzio,"Plutarch, Néron, 9 ; Suetonius, Néron, 9 ; Strabo, Geogr, 5, 3 ; Procopius, Guerre Goths, 1, 26 ; Dionysius, Antiquités, 7, 7 & 9, 13","Lehmann, RE, Flemming, Franco",Italy West,a,p,rs,X,,,,,,,
506,41.451437,12.664493,Nettuno ,Nettuno,,Flemming,Italy West,m,p,,,,,,,,,
507,41.407351,12.767198,"Astura, Storas (island connected to the continent)",Torre Astura,"Strabo, Geogr, 5, 3","Lehmann, Flemming",Italy West,a,,rs,X,,,,,,,
508,41.401924,12.868416,Clostra Romana ,near Lido di Capo Portiere,,BAtlas,Italy West,m,,,,,,,,,,
509,41.375768,12.912880,Ad Turres Albas ,near Lago dei Monaci,,BAtlas,Italy West,m,,,,,,,,,,
510,41.253072,13.044250,"Port of Circei, Circé and stopover for Odysseus",Lago di Paola ,"Homer Odyssey, 10, 140 ; Pliny, Hist Nat, 2, 87","BAtlas, Cuisenier",Italy West,a,,,,,,,,,,
511,41.228102,13.098011,"Circei, Cape Circaeum, Aia ",Cape Circeo,"Strabo, Geogr, 5, 3 ; Apollonius, Argonauticas, 4, 666 ; Scylax, Peripl","Lehmann, Flemming",Italy West,a,p,r,X,,,X,,,,
512,41.284416,13.261566,"Terracina, Tarracina, Anxur ",Terracina,"Plutarch, Caesar, 58 ; Livy, Hist, 40, 51 ; Antonine, Itin Mar","Lehmann, Flemming, Blackman, Franco",Italy West,a,p,r,X,X,X,,,,,
513,40.936058,12.925227, Pontia ,"3 islands: Ponza, Palmarola, Zannone","Antonine, Itin Mar",Flemming,Italy West,a,,,,,,,,,,
514,40.797822,13.433896, Pandataria ,"Porto Vecchio, on the isle of Ventotene","Antonine, Itin Mar","Flemming, Franco",Italy West,a,p,r,,X,,,,,,
515,40.789044,13.454465, Aegina ,"San Stefano, islet near the isle of Ventotene","Antonine, Itin Mar",,Italy West,a,,,,,,,,,,
516,41.251465,13.438808,Speluncae ,Sperlonga,,BAtlas,Italy West,m,,,,,,,,,,
517,41.243204,13.459033,Villa Tiberii ,Villa di Tiberio,,BAtlas,Italy West,m,,,,,,,,,,
518,41.220392,13.575845,"Caiète, Caieta, Caeatas ",Gaeta,"Virgil, Enéïde, 7, 1 ; Pliny, Hist Nat, 3, 9 ; Strabo, Geogr, 5, 3 ; Dionysius, Antiquités, 1, 53","Lehmann, Flemming",Italy West,a,p,,,,,,,,,
519,41.247902,13.603854,"Formies, Hormies ",Formia,"Tacitus, Annales, 15, 46 ; Strabo, Geogr, 5, 3",Flemming,Italy West,a,,,,,,,,,,
520,41.250872,13.662697,,Gianola ,,"BAtlas, Flemming",Italy West,m,,,,,,,,,,
521,41.250662,13.703677,,Scauri ,,BAtlas,Italy West,m,,,,,,,,,,
522,41.218819,13.758647,Minturnae ,Minturno,,"BAtlas, Flemming",Italy West,m,,,,,,,,,,
523,41.156901,13.835712,,Torre San Limato ,,BAtlas,Italy West,m,,,,,,,,,,
524,41.144913,13.844225,Sinuessa ,Baia Azzurra Levagnole,,"Lehmann, Flemming",Italy West,m,,,,,,,,,,
525,41.113658,13.865896,Treppete ,near Mondragone,,BAtlas,Italy West,m,,,,,,,,,,
526,40.909884,14.018248,Liternum ,Lago di Patria,,Flemming,Italy West,m,,,,,,,,,,
527,40.851360,14.056622,Cumes ,Cuma,"Dionysius, Antiquités, 7, 2 ; Antonine, Itin Mar",Flemming,Italy West,a,,,,,,,,,,
528,40.744310,13.940565, Aenaria ,"Porto d'Ischia, on the island d’Ischia","Antonine, Itin Mar",,Italy West,a,p,,,,,,,,,
529,40.759363,13.876299,Pithekoussai ,"San Montano, on the isle of Ischia",,"BAtlas, Flemming",Italy West,m,,,,,,,,,,
530,40.696687,13.879064,,"Punta Chiarito, on the isle of Ischia",,BAtlas,Italy West,m,,,,,,,,,,
531,40.759068,14.016731," Procita, Prochyta ",Isle of Procida,"Dionysius, Antiquités, 1, 53 ; Antonine, Itin Mar",,Italy West,a,,,,,,,,,,
532,40.790505,14.084671,"Misenos, Misenum, Misène ","Capo Miseno, West of Naples","Flaccus, Argonauticas, Livre 1, near 375-386 ; Vegetius, Art Militaire, 5, 1 to 15 ; Strabo, Geogr, 5, 4 ; Dionysius, Antiquités, 1, 53 ; Antonine, Itin Mar","Lehmann, Flemming, Blackman",Italy West,a,p,rs,X,,X,,,,,
533,40.818094,14.077120,"Baiae, Baïes ",Bacoli,"Statius, Silves, 4, 3 ; Pliny, Hist Nat, 3, 9",Flemming,Italy West,a,,rs,,,,,,,,
534,40.829122,14.080819,"Portus Julius, port of Julien on Lake Lucrin ",Locrino,"Dio Cassius, Hist, 48, 50 ; Virgil, Géorgiques, 2, 160",Lehmann,Italy West,a,,,,,,,,,,
535,40.837969,14.075980,Lake Averne ,Lake Averno,"Strabo, Geogr, 5, 4",,Italy West,a,,,,,,,,,,
536,40.825947,14.120224,"Puteoli, Dikaiarcheia, Dicearque ","Pozzuoli, Pouzzoles, Putéoles","Statius, Silves, 3, 2 ; Seneca, Lucilius, 77 ; Luc, Actes, 28.13 ; Josephus Flavius, Vie, 3 ; Antonine, Itin Mar","Lehmann, Flemming, RE, Blackman",Italy West,a,p,rs,X,X,X,,,,,
537,40.794293,14.161118,"Nesis, Odysseus' port of the Cyclopes ?","Porto Paone, on the isle of Nisida, which is now connected to the continent by a breakwater, at Naples (Cuisenier mentions this site with two other possible sites: Marettimo and Faraglioni, Nisida clearly providing the best shelter as described by Homer)","Homer, Odyssey, 9, 136","Lehmann, Flemming, Cuisenier",Italy West,a,,rs,X,,X,,,,,
538,40.791504,14.189813,Imperial Villa of Pausilypon ,"Posillipo, at Naples",,"Lehmann, Flemming",Italy West,m,,rs,X,X,,,,,,
539,40.827919,14.249399,"Naples, Neapolis, Parthenope, on the isle of Megaris","Castell del'Ovo, at Santa Lucia in Naples","Procopius, Guerre Goths, 1, 8 ; Livy, Hist, 36, 42",Flemming,Italy West,a,p,,,,,,,,,
540,40.799268,14.339992,Herculaneum ,Ercolano,,Flemming,Italy West,m,,,,,,,,,,
541,40.749647,14.439303,Oplontis ,near Boscoreale,,BAtlas,Italy West,m,,,,,,,,,,
542,40.727386,14.466316,Pompeia ,Pompei,"Strabo, Geogr, 5, 4",Flemming,Italy West,a,,,,,,,,,,
543,40.702222,14.472574,Stabiae ,Castellammare di Stabia,,Flemming,Italy West,m,,,,,,,,,,
544,40.663923,14.418515,Aequana ,Vico Equense,,BAtlas,Italy West,m,,,,,,,,,,
545,40.645818,14.402715,,Piano di Sorrento ,,BAtlas,Italy West,m,,,,,,,,,,
546,40.631895,14.370933,"Surrentum, with possible lighthouse at Punta della Campanella",Sorrento,,"Flemming, Christiansen",Italy West,m,,,,,,,,,,
547,40.558734,14.243559," Capraria, Capreae, and Villa Jovis with possible lighthouse","Marina Grande, on the isle of Capri","Tacitus, Annales, 4, 67 ; Antonine, Itin Mar","Lehmann, Flemming, Christiansen",Italy West,a,,r,,,,,,,X?,
548,40.580936,14.432552,"Siren islands, Seirenoussai, Anthemoessa, Anthémuse, no stopover for Odysseus",Island dei Galli,"Homer, Odyssey, 12, 39; Apollonius, Argonauticas, 4, 890",Cuisenier,Italy West,a,,,,,,,,,,
549,40.623119,14.483897,,Positano ,,BAtlas,Italy West,m,,,,,,,,,,
550,40.629351,14.602899,Amalfi Civitas ,Amalfi,,BAtlas,Italy West,m,,,,,,,,,,
551,40.645549,14.628209,,Minori ,,BAtlas,Italy West,m,,,,,,,,,,
552,40.663256,14.723885,Vietri ,Vietri sul Mare,,BAtlas,Italy West,m,,,,,,,,,,
553,40.670947,14.761100,Salernum ,Salerno,,Flemming,Italy West,m,p,,,,,,,,,
554,40.488629,14.969769,Portus Alburnus ,"at the outlet of R Silarus, now called Sele, near Capaccio-Paestum",,"CG, Flemming",Italy West,m,,r,,,,,,,,
555,40.422963,15.005742,"Poseïdonia, Paestum  ","Capaccio-Paestum, on a former outlet of R Sele ? The port of Paestum and Alburnus portus are clearly close to each other, but seem to be different places. Perhaps  divagations of the outlet of R Sele (ex-Silarus) have induced a moving of the port.","Strabo, Geogr, 5, 4",,Italy West,a,,,,,,,,,,
556,40.358318,14.990506,,Agropoli ,,BAtlas,Italy West,m,,,,,,,,,,
557,40.268002,14.932901,,San Marco di Castellabate,,,Italy West,m,,,,,,,,,,
558,40.160209,15.138547,"Velia, Elea, Portus Velinus ",Velia,,"CG, BAtlas, Flemming",Italy West,m,,,,,,,,,,
559,40.035658,15.282234,Palinurus ,Capo Palinuro,,"RE, BAtlas, Flemming",Italy West,m,,,,,,,,,,
560,40.026788,15.294659,"Iles Oenotrides, Molpa ",Scoglio del Coniglio ? With good anchorage on the coast,"Strabo, Geogr, 6,1",BAtlas,Italy West,a,,,,,,,,,,
561,40.065378,15.516403,"Pyxûs, Buxentum ",Policastro Bussentino,"Strabo, Geogr, 6,1",Flemming,Italy West,a,,,,,,,,,,
562,40.069340,15.625943,Scidrus ,Sapri,,Flemming,Italy West,m,,,,,,,,,,
563,39.986490,15.697463,Cesernia ,near Maratea,,BAtlas,Italy West,m,p,,,,,,,,,
564,39.967184,15.715945,,"Isle of Santo Janni, Santoianni ",,BAtlas,Italy West,m,,,,,,,,,,
565,39.913511,15.756465,Blanda ,Tortora Marina,,BAtlas,Italy West,m,,,,,,,,,,
566,39.817810,15.781146,,Petrosa ,,BAtlas,Italy West,m,,,,,,,,,,
567,39.775272,15.789572,"Laos, Laus, Lavinium ",outlet of R Lao ?,,"Flemming, BAtlas",Italy West,m,,,,,,,,,,
568,39.709009,15.804176,"Cerillea, Cerilli ",Cirella,,"Flemming, BAtlas",Italy West,m,,,,,,,,,,
569,39.613783,15.848026,,Belvedere Marittimo ,,BAtlas,Italy West,m,,,,,,,,,,
570,39.491704,15.945789,,Acquappesa ,,BAtlas,Italy West,m,,,,,,,,,,
571,39.301273,16.042302,,San Lucido ,,BAtlas,Italy West,m,,,,,,,,,,
572,39.127809,16.065528,Clampetia ,near Amantea,,"Flemming, BAtlas",Italy West,m,,,,,,,,,,
573,39.076278,16.082671,,Aiello near Corica ,,BAtlas,Italy West,m,,,,,,,,,,
574,39.027944,16.094554,"Temesa, Tamèse, Tempsa ",outlet of R Savuto 10 km South of Amantea,"Homer, Odyssey, 1, 184","Flemming, BAtlas",Italy West,a,,,,,,,,,,
575,38.927322,16.207315,Terina ,Lamezia Terme,,"Flemming, BAtlas",Italy West,m,,,,,,,,,,
576,38.898236,16.212558,Port Parthenius of the phoceans ,"unlocalized, in the gulf of Eufemia near the airport of Lamezia Terme, idem Terina ?","Pliny, Hist Nat, 3, 10 ; Solinus, Polyhistor, 2",CG,Italy West,a,,,,,,,,,,
577,38.855308,16.212020,Bruttium ,"Calabria, near Lamezia Terme or Maida ?","Diodorus, Hist, 19, 103",,Italy West,a,,,,,,,,,,
578,38.845734,16.211913,Acconia ,idem Bruttium ?,,BAtlas,Italy West,m,,,,,,,,,,
579,38.773926,16.192327,Ad Fluvium Angitulam ,near Pizzo Calabro,,BAtlas,Italy West,m,,,,,,,,,,
580,38.725892,16.115236,"Hipponium, Hipponion, Vibo ",Vibo Valentia,"Strabo, 6, 1","Lehmann, Flemming",Italy West,a,p,rs,X,,,,,,,
581,38.683746,15.908708,"Trapeia, Port of Hercules ",Tropea,"Strabo, 6, 1 ; Pliny, Hist Nat, 3, 10",,Italy West,a,,,,,,,,,,
582,38.545206,15.921164,,Nicotera ,,BAtlas,Italy West,m,,,,,,,,,,
583,38.499643,15.968187,"Emporium, port of Medma ",Rosarno,"Strabo, Geogr, 6,1","CG, Flemming",Italy West,a,,,,,,,,,,
584,38.421553,15.871137,Port at the outlet of R Métaure ,"R Mesima, near Gioia Tauro","Strabo, Geogr, 6,1",,Italy West,a,,,,,,,,,,
585,38.386416,15.855318,Taurianum ,near Lido di Palmi,,BAtlas,Italy West,m,,,,,,,,,,
586,38.349871,15.830137,Port of Oreste ,"Palmi, Porto Ravaglioso","Pliny, Hist Nat, 3, 10",CG,Italy West,a,,,,,,,,,,
587,38.259242,15.715591,Scyllaeum ,Scilla,,Flemming,Italy West,m,,,,,,,,,,
588,38.223947,15.629415,Kainys ,near Villa San Giovanni,,BAtlas,Italy West,m,,,,,,,,,,
589,38.178472,15.636385,Ad Columnam ,near Catona,,BAtlas,Italy West,m,,,,,,,,,,
590,38.109425,15.634658,Rhegium ,"Rhège, Reggio di Calabria","Livy, Hist, 24, 1 ; Diodorus, Hist, 13, 2 & 14, 25; Dio Cassius, Hist, 48, 18 ; Luc, Actes, 28.13 ; Thucydides, Péloponnèse, 6, 50 ; Plutarch, Timoléon, 10 ; Antonine, Itin Mar",Flemming,Italy West,a,,,,,,,,,,
591,38.006879,15.632315,Leucopetra ,near Bocale,,BAtlas,Italy West,m,,,,,,,,,,
592,37.912551,15.792908,Decastadium ? ,near Melito di Porto Salvo,,BAtlas,Italy West,m,,,,,,,,,,
593,37.913953,15.993325,Scyle ,near Palizzi Marina,,BAtlas,Italy West,m,,,,,,,,,,
594,37.926494,16.070617,Hipporum ,near Galati,,BAtlas,Italy West,m,,,,,,,,,,
595,38.042511,16.148599,"Zephyrium, Zeffiro ",Capo Bruzzano near Africo,"Antonine, Itin Mar",BAtlas,Italy West,a,,,,,,,,,,
596,38.117820,16.158269,,Villa Romana di Casignana ,,BAtlas,Italy West,m,,,,,,,,,,
597,38.141495,16.177826,Altanum ? ,near Bovalino,,BAtlas,Italy West,m,,,,,,,,,,
598,38.226004,16.266529,"Lokroi Epizephyrioi, Locri Epizefiri, Locres ",Locri,"Livy, Hist, 24, 1 ; Pliny, Hist Nat, 3, 15 ; Thucydides, Péloponnèse, 4, 1","Lehmann, Flemming",Italy West,a,,,,,,,,,,
599,38.293092,16.333741,Subsicivo ? ,near Marina di Gioiosa Ionica,,BAtlas,Italy West,m,,,,,,,,,,
600,38.318166,16.413143,Santo Onofrio ,near Roccella Ionica,,BAtlas,Italy West,m,p,,,,,,,,,
601,38.444248,16.580223,"Stilida, Kaulonia, Caulonia, ","Punta Stilo, at Monasterace Marina","Antonine, Itin Mar",,Italy West,a,,,,,,,,,,
602,38.745804,16.562943,Vivarium ,near Catalunga Pietragrande,,BAtlas,Italy West,m,,,,,,,,,,
603,38.822600,16.628427,"Scylletium, Scolacium ",near Catanzaro Lido,,BAtlas,Italy West,m,,,,,,,,,,
604,38.857760,16.713868,"Castra Hannibalis, Camp of Annibal ",near Sellia Marina,"Pliny, Hist Nat, 3, 15 ; Solinus, Polyhistor, 3",BAtlas,Italy West,a,,,,,,,,,,
605,38.926335,16.897527,Tacina ,near Steccato,,BAtlas,Italy West,m,,,,,,,,,,
606,38.903404,17.023685,,Le Castella ,,BAtlas,Italy West,m,p,,,,,,,,,
607,38.899004,17.089870,"Port of Aphrodite, Cape Iapygie, Iapygium, Sallentin ",Cape Rizzuto,"Dionysius, Antiquités, 1, 51",RE,Italy West,a,,,,,,,,,,
608,39.030655,17.208040,"Naus promontario, Lacinium promontario, Hera temple ",Capo delle Colonne,"Antonine, Itin Mar",BAtlas,Italy West,a,,,,,,,,,,
609,39.096910,17.117497,"Kroton, Crotone and the port of Aesarus ",Crotone,"Livy, Hist, 24, 2 ; Diodorus, Hist, 14, 25 ; Polybius, Hist, 10, 1 ; Strabo, Geogr, 6,1 ; Antonine, Itin Mar","Lehmann, Flemming",Italy West,a,p,rs,X,,,,,,,
610,39.197938,17.153176,Meto ,outlet of R Neto,,BAtlas,Italy West,m,,,,,,,,,,
611,39.370149,17.140861,Krimisa ,near Ciro Marina,,BAtlas,Italy West,m,p,,,,,,,,,
612,39.471972,17.035646,Paternum ,near Torretta,,BAtlas,Italy West,m,,,,,,,,,,
613,39.626315,16.761230,greek Sybaris ,near Mirto and Crosia,,BAtlas,Italy West,m,,,,,,,,,,
614,39.623244,16.655603,"Portus Roscia, Rouskiane ",Rossano,,"CG, BAtlas",Italy West,m,,,,,,,,,,
615,39.717044,16.491191,"Thurium, Thurii, Copia, port of archaic Sybaris ",Laghi di Sibari,"Diodorus, Hist, 13, 2","BAtlas, Blackman, Flemming",Italy West,a,p,r,,,,,X,,,
616,39.865106,16.538059,,Trebisacce ,,BAtlas,Italy West,m,,,,,,,,,,
617,39.931129,16.611056,Ad Vicesimum ,near Amendolara,,BAtlas,Italy West,m,,,,,,,,,,
618,40.038038,16.603421,,Montegiordano ,,BAtlas,Italy West,m,,,,,,,,,,
619,40.102151,16.633812,Cugno dei Vagni ,near Rocca Imperiale,,BAtlas,Italy West,m,,,,,,,,,,
620,40.123935,16.660962,,Piano San Pietro ,,BAtlas,Italy West,m,,,,,,,,,,
621,40.139716,16.684480,,Semnum ,,BAtlas,Italy West,m,,,,,,,,,,
622,40.159428,16.702528,Siris ,near Bosco Pantano ?,,"Flemming, BAtlas",Italy West,m,,,,,,,,,,
623,40.220420,16.671326,"Heraclea, Héraclée ",Policoro,"Strabo, Geogr, 6,1","CG, Flemming",Italy West,a,p,,,,,,,,,
624,40.375544,16.831957,"Metapontum, Metaponte",Metaponto,"Livy, Hist, 25, 11","Lehmann, Flemming",Italy West,a,,r,,,,X?,,X?,,
625,40.472032,17.228144,"Tarente, Taras, Neptuna ",Tarento,"Livy, Hist, 25, 11 & 27,15 & 41, 1 ; Appian, Hannibalique, 6 ; Polybius, Hist, 8, 8 & 10, 1 ; Strabo, Geogr, 6,3 ; Thucydides, Péloponnèse, 6, 104",Flemming,Italy West,a,p,,,,,,,,,
626,40.360049,17.235684,"Port Scéin, Scean port", ? near Tarento,"Diodorus, Hist, 8",,Italy West,a,,,,,,,,,,
627,40.372795,17.302524,"Satyrion, Saturnum ",Saturo,,BAtlas,Italy West,m,,,,,,,,,,
628,40.302099,17.500548,,Torre Ovo ,,BAtlas,Italy West,m,,,,,,,,,,
629,40.252471,17.900352,Port Sasina ,Porto Cesareo,"Pliny, Hist Nat, 3, 16",BAtlas,Italy West,a,,,,,,,,,,
630,40.137046,17.983673,,Santa Caterina ,,BAtlas,Italy West,m,,,,,,,,,,
631,40.054413,17.979931,"Kallipolis, Anxa ",Gallipoli,,"BAtlas, Flemming",Italy West,m,,,,,,,,,,
632,39.883041,18.114451,,Torre San Giovanni ,,BAtlas,Italy West,m,,,,,,,,,,
633,39.792157,18.362675,"Leuca, Portus Sallentinus ",South Cape of Calabria,"Antonine, Itin Mar",BAtlas,Italy West,a,,,,,,,,,,
634,38.261545,15.647675,Traiectus ,near Torre di Faro,,BAtlas,Italy Sicily,m,,,,,,,,,,
635,38.192865,15.560811,"Zancle, Zankle, Messana, Messène, Homer's Port Creux (Hollow port) where Odysseus had a stopover?","Messina, NE cape","Homer, Odyssey, 12, 304 ; Caesar, Guerre civile, 2, 3 ; Appian, Guerres civiles, 5, 6 & 13 ; Diodorus, Hist, 4, 36 & 14, 15 & 14, 25; Pausanias, Grèce, 4, 23 ; Livy, Hist, 21, 49 ; Thucydides, Péloponnèse, 6, 50 ; Scylax, Peripl ; Antonine, Itin Mar ; Polyaenus, Stratagèmes, 6, 16","Lehmann, Flemming, Cuisenier",Italy Sicily,a,,,,,,,,,,
636,38.145129,15.536584,,Pistunina ,,BAtlas,Italy Sicily,m,,,,,,,,,,
637,37.958114,15.383824,"Phoinix, Tamaricii, Palmae ",near Furci Siculo,,BAtlas,Italy Sicily,m,,,,,,,,,,
638,37.848105,15.302357,Tauromenium ,Taormina,"Plutarch, Timoléon, 11 ; Antonine, Itin Mar",Flemming,Italy Sicily,a,,,,,,,,,,
639,37.826392,15.273021,"Naxos, Naxus ",Giardini-Naxos,"Diodorus, Hist, 13, 2","Lehmann, Loven",Italy Sicily,a,,r,,,,,,X,,
640,37.572564,15.171274,Acium ,Capo Mulini,,"BAtlas, Flemming",Italy Sicily,m,,,,,,,,,,
641,37.559234,15.168870,"Reefs of the Cyclopes, Odysseus' port of the Cyclopes ? ","Islets of Faraglioni, in front of Aci Tressa (Cuisenier mentions this site with two other possible sites: Marettimo and Nisida, the latter clearly providing the best shelter as described by Homer)","Homer, Odyssey, 9, 136 ; Pliny, Histoire Naturelle, 3, 14","BAtlas, Cuisenier",Italy Sicily,a,,,,,,,,,,
642,37.529208,15.118541,"Ulixis portus, Port of Odysseus ",Ognina,,BAtlas,Italy Sicily,m,,,,,,,,,,
643,37.498300,15.092419,Catina ,Catania,"Pliny, Hist Nat, 3, 14 ; Thucydides, Péloponnèse, 6, 50 ; Antonine, Itin Mar",Flemming,Italy Sicily,a,p,,,,,,,,,
644,37.310011,15.132834,,Punta Castelluccio ,,BAtlas,Italy Sicily,m,,,,,,,,,,
644.1,37.282776,15.186556,,Brucoli,,AdG,Italy Sicily,m,p,,,,,,,,,
645,37.211162,15.185739,"Megara Hyblaea, Port Xiphon ",Augusta,"Scylax, Peripl","Lehmann, BAtlas, Flemming",Italy Sicily,a,p,r,,X,,,,,,
646,37.145257,15.228473," Tapsus, Thapsos ",peninsula of Magnisi,"Thucydides, Péloponnèse, 6, 99 to 102 ; Antonine, Itin Mar",Flemming,Italy Sicily,a,,,,,,,,,,
647,37.117339,15.247193,Leon ,near Casa Targia,,BAtlas,Italy Sicily,m,,,,,,,,,,
648,37.108397,15.277736,"Trogili, Trogile ","near a tower called Géléagre, at Syracuse, Santa Panagia","Livy, Hist, 25, 23",,Italy Sicily,a,,,,,,,,,,
649,37.068477,15.294523,"Syracuse, Syrakus, « Small Port », Lakkios",Porto Lachio  at Syracuse,"Diodorus, Hist, 14, 3","Lehmann, Loven",Italy Sicily,a,,r,,,,,,X,,
650,37.059035,15.290503,"Syracuse, Port of Arethuse on the isle of Ortygia","Port of Arethuse, on the isle of Ortiga","Procopius, Guerre Vandales, 1, 14 ; Strabo, Geogr, 6,2 ; Antonine, Itin Mar",RE,Italy Sicily,a,,,,,,,,,,
651,37.048459,15.284872,"Syracuse, « Large Port »",Siracusa,"Livy, Hist, 24, 36 & 25, 25 & 29, 22 ; Pliny, Hist Nat, 3, 14 ; Diodorus, Hist, 13, 2 to 17 & 14, 13 & 14, 16 & 20, 5 & 20, 61 & 22, 12) ; Luc, Actes, 28.12 ; Nepos, Dion, 9, Thucydides, Péloponnèse, 6, 50 to 102 & 7, 4 to 69 ; Plutarch, Nicias, 21-34 & Timoléon, 12-19 ; Scylax, Peripl ; Antonine, Itin Mar ; Polyaenus, Stratagèmes, 2, 11 & 5, 32","RE, Flemming, Blackman",Italy Sicily,a,p,rs,,,,,,,,
652,37.050281,15.274226,"Syracuse, Port of Olympia",near the outlet of R Anapus ?,"Diodorus, Hist, 13, 2 ; Scylax, Peripl",,Italy Sicily,a,,,,,,,,,,
653,37.042482,15.305743,Dascon ,Massoliveri,"Diodorus, Hist, 14, 18",BAtlas,Italy Sicily,a,,,,,,,,,,
654,36.956110,15.214525,Port Nausthamus ,Fontane Bianche ?,"Pliny, Hist Nat, 3, 14",BAtlas,Italy Sicily,a,,,,,,,,,,
655,36.835198,15.113749,"Helorus, Elorus ","Eloro, on R Tellaro near Noto",,Flemming,Italy Sicily,m,,,,,,,,,,
656,36.796225,15.102762,Phoenicus Portus ,Torre Vendicari,"Ptol, Geogr, 3, 4",BAtlas,Italy Sicily,a,,,,,,,,,,
657,36.777082,15.100021,,Cittadella ,,BAtlas,Italy Sicily,m,,,,,,,,,,
658,36.678653,15.139942,"Portus Pachyni, Pachyno, Apollineum ",Portopalo di Capo Passero South of Sicily,"Antonine, Itin Mar",BAtlas,Italy Sicily,a,,,,,,,,,,
659,36.696902,14.998671,Odysseae Portus ,near Granelli,,BAtlas,Italy Sicily,m,,,,,,,,,,
660,36.702809,14.773304,"Hereum, Cymbe ",near Marina di Modica,,BAtlas,Italy Sicily,m,,,,,,,,,,
661,36.788665,14.507320,Caucana Portus ,Punta Secca,"Ptol, Geogr, 3, 4","Lehmann, BAtlas",Italy Sicily,a,,,,,,,,,,
662,36.866878,14.440957,,Camarina ,,"BAtlas, Flemming",Italy Sicily,m,,,,,,,,,,
663,36.927737,14.399822,Mesopotamium ,about 5 km North of Scoglitti,,BAtlas,Italy Sicily,m,,,,,,,,,,
664,37.026439,14.303401,Calvisiana ,near Piano Rizzuto,,BAtlas,Italy Sicily,m,,,,,,,,,,
665,37.051839,14.256790,,Gela ,,"BAtlas, Flemming",Italy Sicily,m,,,,,,,,,,
666,37.079085,14.191874,Chalae ? ,near Montelungo,,BAtlas,Italy Sicily,m,,,,,,,,,,
667,37.100201,14.138661,,Torre di Manfria ,,BAtlas,Italy Sicily,m,,,,,,,,,,
668,37.101488,13.937740,Phintias ,Licata,"Strabo, Geogr, 6, 2 ; Diodorus, Hist, 24","BAtlas, Flemming",Italy Sicily,a,p,,,,,,,,,
669,37.100827,13.880875,Eknomos ? ,near Mollarella,,BAtlas,Italy Sicily,m,,,,,,,,,,
670,37.114826,13.856089,"Daedalium, Dedalium, Omphale ",Rocca San Nicola,,Flemming,Italy Sicily,m,,,,,,,,,,
671,37.144488,13.780019,Castellazzo di Palma di Montechiaro and Narasette ,access via Spiaggia di Malerba ?,,BAtlas,Italy Sicily,m,,,,,,,,,,
672,37.179570,13.695341,,Castello di Palma di Montechiaro ,,BAtlas,Italy Sicily,m,,,,,,,,,,
673,37.262515,13.571885,"Agrakas, Akragas, Agrigentum ",Agrigento,"Diodorus, Hist, 13, 83 ; Strabo, Geogr, 6,2 ; Antonine, Itin Mar","Lehmann, Flemming",Italy Sicily,a,p,rs,X,,,,,,,
674,37.289874,13.463407,,Durrueli di Realmonte ,,BAtlas,Italy Sicily,m,,,,,,,,,,
675,37.389287,13.283856,Heraclea Minoa ,Heraclea Minoa ,"Plutarch, Dio 28 & Nicias 8",CG,Italy Sicily,a,,,,,,,,,,
676,37.414943,13.256671,,Borgo Bonsignore ,,BAtlas,Italy Sicily,m,,,,,,,,,,
677,37.580589,12.829151,"Selinus, Selinunt, Selinonte ",Selinonte,"Diodorus, Hist, 14, 14","Lehmann, Flemming",Italy Sicily,a,,rs,X,X,,,,,,
678,37.644211,12.587605,Mazara ,Mazara ,,"Lehmann, Flemming",Italy Sicily,m,p,r,,X,,,,,,
679,37.808131,12.428115,"Lilybaion, Lilybée ","Cape Boeo, at Marsala","Caesar, Guerre d’Afrique, 34, Livy, Hist, 21, 49-50 & 29, 24 ; Diodorus, Hist, 24 & 36 ; Polybius, Hist, 1, 44 & 47 & 59 ; Antonine, Itin Mar","Carayon, Lehmann",Italy Sicily,a,,rs,X,,,,,,,
680,37.812400,12.443337,"Lilybaion, Lilybée ","Punta Alga, at Marsala","Caesar, Guerre d’Afrique, 34, Livy, Hist, 21, 49-50 & 29, 24 ; Diodorus, Hist, 24 & 36 ; Polybius, Hist, 1, 44 & 47 & 59 ; Antonine, Itin Mar","Carayon, Lehmann",Italy Sicily,a,,,,,,,,,,
681,37.841595,12.447225,,"Isola Grande, Lehmann mentions a môle at the southern tip of this island",,Lehmann,Italy Sicily,m,,rs,X?,,,,,,,
682,37.864546,12.465754,"Motye, Motyée ","Mozia, on the isle of San Pantaleo, Lehmann mentions a connecting breakwater between the island and the continent","Diodorus, Hist, 13, 61 & 14,14 ; Polyaenus, Stratagèmes, 5, 2","Carayon, Lehmann, Flemming",Italy Sicily,a,,r,X,X,,X,,,,X?
683,38.007961,12.502194,"Drepanum, Drepane ",Trapani,"Virgil, Enéïde, 5, 114 ; Diodorus, Hist, 22, Fragments ; Polybius, Hist, 1, 46 & 50 & 59 & 61","Carayon, RE, Flemming",Italy Sicily,a,p,,,,,,,,,
684,37.934044,12.322489,"Aigousa, Favignana, Odysseus' port of the Cyclopes ?","Favignana, on the isle of Favignana, the largest of the Egadi islands (Cuisenier mentions this site with two other possible sites: Faraglioni and Nisida, the latter clearly providing the best shelter as described by Homer)","Homer, Odyssey, 9, 136","Carayon, Cuisenier",Italy Sicily,a,p,,,,,,,,,
685,37.970422,12.077769,"Maritima, Hiera","Marettimo, on the isle of Marettimo, furthest of the Egadi islands","Antonine, Itin Mar",Cuisenier,Italy Sicily,a,,,,,,,,,,
686,38.070435,12.589630,"Erix, Eryx, Erice ",access via Porto di Bonagia ?,"Diodorus, Hist, 15, 73 ; Diodorus, Hist, 24",Flemming,Italy Sicily,a,,,,,,,,,,
687,38.036031,12.893104,Emporion Segestanon ,Castellamare del Golfo,,BAtlas,Italy Sicily,m,,,,,,,,,,
688,38.703901,13.199545,"Os, Osteodes","Ustica, on the island di Ustica","Diodorus, Hist, 5, 8",,Italy Sicily,a,,,,,,,,,,
689,38.176870,13.194336,Hyccara ,Carini,,Flemming,Italy Sicily,m,,,,,,,,,,
690,38.120398,13.368583,Panorme,Palermo,"Livy, Hist, 24, 36 ; Diodorus, Hist, 22 & 23 &24 ; Procopius, Guerre Goths, 1, 5 ; Polybius, Hist, 1, 39","Carayon, Flemming",Italy Sicily,a,p,,,,,,,,,
691,38.081694,13.542862,"Solus, port of Solonte ",Solanto-Porticello,,"Carayon, Flemming",Italy Sicily,m,p,,,,,,,,,
692,37.993991,13.690394,"Thermai, Thermae Himeraeae ",Termini Imerese,,"Lehmann, Flemming",Italy Sicily,m,p,rs,X,,,,,,,
693,37.984750,13.822522,"Himera, Himère ",at the outlet of R Grande East of Termini,"Diodorus, Hist, 13, 61",Flemming,Italy Sicily,a,,,,,,,,,,
694,38.031792,13.980740,,"Settefrati, near Mazzaforno",,BAtlas,Italy Sicily,m,,,,,,,,,,
695,38.043883,14.024107,"Cephaloedium, Cephalidium ",Cefalu,"Diodorus, Hist, 23",Flemming,Italy Sicily,a,,,,,,,,,,
696,38.011622,14.259428,Halaesa ,near Castel di Tusa,,BAtlas,Italy Sicily,m,,,,,,,,,,
697,38.036496,14.448292,"Kale Akte, Calate ",near Marina di Caronia,,"BAtlas, Flemming",Italy Sicily,m,,,,,,,,,,
698,38.155815,14.730986,Agathyrnum ,near le Capo d’Orlando,,BAtlas,Italy Sicily,m,,,,,,,,,,
699,38.159205,14.770350,,Bagnoli di San Gregorio ,,BAtlas,Italy Sicily,m,,,,,,,,,,
700,38.153514,14.983391,,Patti Marina ,,BAtlas,Italy Sicily,m,,,,,,,,,,
701,38.546846,14.455249,Egira and Celsina ,Isles of Alicudi and Filicudi,"Antonine, Itin Mar",,Italy Sicily,a,,,,,,,,,,
702,38.564784,14.845975,Didyma ,Isle of Salina,"Antonine, Itin Mar",Flemming,Italy Sicily,a,,,,,,,,,,
703,38.472490,14.960879,Liparos ,"Porto Pignataro, on the isle of Lipari","Diodorus, Hist, 5, 7 ; Polybius, Hist, 1, 21 ; Antonine, Itin Mar","Flemming, Cuisenier",Italy Sicily,a,,,,,,,,,,
704,38.416361,14.966446,"Heraclea, Hiera Thermessa ","Porto Vulcano, on the isle of Vulcano","Diodorus, Hist, 24 ; Antonine, Itin Mar",,Italy Sicily,a,,,,,,,,,,
705,38.627480,15.066238,Aegina ,"Caletta dei Zimmeri, South of the isle of Panarea","Antonine, Itin Mar",Cuisenier,Italy Sicily,a,,,,,,,,,,
706,38.661086,15.114110, Heracleotes ,Isle of Basiluzzo,"Antonine, Itin Mar",,Italy Sicily,a,,,,,,,,,,
707,38.797457,15.244209,"Strongilos, Eolie, capital of Aeolus's kingdom and Odysseus' stopover","beach of San Vincenzo, on the isle of Stromboli","Antonine, Itin Mar",Cuisenier,Italy Sicily,a,,,,,,,,,,
708,38.138817,15.059905,Tyndaris ,Tindari,"Polybius, Hist, 1, 25",Flemming,Italy Sicily,a,,,,,,,,,,
709,38.146439,15.150606,,Castroreale San Biagio ,,BAtlas,Italy Sicily,m,,,,,,,,,,
710,38.221505,15.256283,"Myle, Mylae ",Milazzo,"Scylax, Peripl",Flemming,Italy Sicily,a,p,,,,,,,,,
711,38.225090,15.371783,"Naulochos, Naulocha ",near Venetico Marina,,"Lehmann, Flemming",Italy Sicily,m,,r,,,X,,,,,
712,35.881465,14.442950,"Malta, Isle of Melite, Isle of Gaulos, Isle of Cercine","Isles of Malta, Gozo and Comino","Diodorus, Hist, 5, 9 ; Procopius, Guerre Vandales, 1, 14 ; Luc, Actes, 28.1 ; Strabo, Geogr, 6,2 ; Scylax, Peripl ; Antonine, Itin Mar","Lehmann, Flemming",Malta,a,,,,,,,,,,
713,35.974829,14.364465,,Mellieha bay,,AdG,Malta,m,p,,,,,,,,,
714,35.953129,14.396146,,"San Pawl, Saint Paul's bay",,"Carayon, Bonanno",Malta,m,p,,,,,,,,,
714.1,35.950760,14.426772,,"Salini, Salina bay",,"Carayon, Bonanno",Malta,m,,,,,,,,,,
714.2,35.926135,14.488961,,Saint George's bay,,AdG,Malta,m,p,,,,,,,,,
715,35.917335,14.495520,,"San Giljan, Spinola bay",,Carayon,Malta,m,,,,,,,,,,
716,35.901145,14.499356,,"Manoel island, Gzira creek",,"Carayon, Bonanno",Malta,m,p,,,,,,,,,
716.1,35.896406,14.494795,,"Marsamxett, Msida creek",,AdG,Malta,m,p,,,,,,,,,
717,35.880722,14.500837,Marsa ,"Marsa, Ta'Cejlu",,"Carayon, Bonanno",Malta,m,,,,,,,,,,
717.1,35.882075,14.516792,,"Grand Harbour, French creek",,"Carayon, Bonanno",Malta,m,,,,,,,,,,
717.2,35.884860,14.520633,,"Grand Harbour, Dockyard creek",,"Carayon, Bonanno",Malta,m,p,,,,,,,,,
718,35.864915,14.571825,,Marsaskala ,,Carayon,Malta,m,p,,,,,,,,,
719,35.839407,14.548045,,Marsaxlokk ,,"Carayon, Bonanno",Malta,m,p,r,,,,,,,,X?
719.1,35.830815,14.531931,,"Birzebbuga, Saint George's bay",,Bonanno,Malta,m,p,,,,,,,,,
719.2,35.823451,14.531640,,"Birzebbuga, Pretty bay",,Bonanno,Malta,m,p,,,,,,,,,
720,35.907770,14.335288,,Ras ir Raheb ,,BAtlas,Malta,m,,,,,,,,,,
721,35.931284,14.341587,,Ghajn Tuffieha and Golden bay,,"Carayon, Bonanno",Malta,m,,,,,,,,,,
721.1,36.012741,14.323565,,"Blue Lagoon, on the isle of Comino",,AdG,Malta: Comino,m,p,,,,,,,,,
722,36.023646,14.304262,,"Mgarr, on the isle of Gozo",,"Carayon, Bonanno",Malta: Gozo,m,p,,,,,,,,,
723,36.062491,14.283872,,"Ramla, on the isle of Gozo",,"Carayon, Bonanno",Malta: Gozo,m,,rs,,X?,,,,,,
724,36.073457,14.259978,,"Marsalforn, on the isle of Gozo",,"Carayon, Bonanno",Malta: Gozo,m,p,,,,,,,,,
725,36.028400,14.214072,,"Xlendi, on the isle of Gozo",,"Carayon, Bonanno",Malta: Gozo,m,,,,,,,,,,
725.1,36.019642,14.271601,,"Mgarr ix Xini, on the isle of Gozo",,Bonanno,Malta: Gozo,m,p,,,,,,,,,
726,36.831534,11.941101," Cossura, Kossura ","Pantelleria, on the isle of Pantelleria","Antonine, Itin Mar","Carayon, Lehmann, Flemming",Italy Pantelleria,a,p,r,X,,,,,,,
727,35.861034,12.869306," Hefaesta, Efesta ",Isle of Linosa ?,"Antonine, Itin Mar",,Italy Linosa,a,,,,,,,,,,
728,35.499083,12.608044," Falacron, Falacro ","Lampedusa, on the isle of Lampedusa ?","Antonine, Itin Mar",Carayon,Italy Lampedusa,a,p,,,,,,,,,
729,40.011636,18.435411,"Castrum Minerva, Port of Venus, Limen Aphrodites, Athenaion ",Castro,"Virgil, Enéïde, 3, 328 ; Dionysius, Antiquités, 1, 51 ; Strabo, Geogr, 6,1","BAtlas, Flemming",Italy Adriatic,a,,,,,,,,,,
730,40.148182,18.490869,"Hydros, Hydrunte, Otrante ",Otranto,"Pausanias, Grèce, 6, 19 ; Livy, Hist, 36, 21 ; Procopius, Guerre Goths, 3, 10 ; Scylax, Peripl ; Antonine, Itin Mar",Flemming,Italy Adriatic,a,,,,,,,,,,
731,40.289242,18.428936,Port Tarentin ,near Rocca Vecchia or San Foca ?,"Pliny, Hist Nat, 3, 16",BAtlas,Italy Adriatic,a,,,,,,,,,,
732,40.301208,18.409136,,San Foca ,,BAtlas,Italy Adriatic,m,,,,,,,,,,
733,40.386459,18.307982,"Hadrianou Hormos, port of Lupiae, Miltopiae ? ","port of Lecce, at San Cataldo ?","Pausanias, Grèce, 6, 19 ; Pliny, Hist Nat, 3, 16","Lehmann, BAtlas",Italy Adriatic,a,,,,,,,,,,
734,40.641441,17.948953,"Brindes, Brentesium, Brundisium, Bronduse, with possibly two ancient lighthouses: on Barra island and at the entrance of the inner port",Brindisi,"Tacitus, Annales, 3, 1 ; Caesar, Guerre civile, 3, 24 ; Plutarch, Pompée, 62 ; Dio Cassius, 41, 48 ; Pliny, Hist Nat, 3, 16 ; Livy, Hist, 44, 1 ; Strabo, Geogr, 6,3 ; Antonine, Itin Mar ; Polyaenus, Stratagèmes, 8, 24","Lehmann, Flemming, Christiansen",Italy Adriatic,a,,r,,,,,,,X?,
735,40.688558,17.866423,,Apani near Torre Rossa ,,BAtlas,Italy Adriatic,m,,,,,,,,,,
736,40.711631,17.801248,,Torre Guaceto ,,BAtlas,Italy Adriatic,m,,,,,,,,,,
737,40.778785,17.649236,Ad Speluncas ,near Costa Merlata,,BAtlas,Italy Adriatic,m,,,,,,,,,,
738,40.814565,17.522500,Ad Decimum ,near Pilone,,BAtlas,Italy Adriatic,m,,,,,,,,,,
739,40.888479,17.393017,Gnathia ,"Egnazia, where a large submerged caisson was found",,"Lehmann, Flemming, Blackman",Italy Adriatic,m,,rs,X,,,,,,,
740,40.962258,17.300749,Diria ? ,near Monopoli,,BAtlas,Italy Adriatic,m,,,,,,,,,,
741,40.998310,17.220483,"Turris Caesaris, Neapolis ",near Polignano,,BAtlas,Italy Adriatic,m,,,,,,,,,,
742,41.007372,17.204450,"Apanestae, Arnestum ",San Vito,,,Italy Adriatic,m,,,,,,,,,,
743,41.084676,17.055197,Turres Iulianae ,near Mola di Bari,,BAtlas,Italy Adriatic,m,,,,,,,,,,
744,41.090957,16.997139,,Torre a Mare ,,BAtlas,Italy Adriatic,m,,,,,,,,,,
745,41.129948,16.882503,Barium ,Bari,,"Lehmann, Flemming, RE",Italy Adriatic,m,,,,,,,,,,
746,41.192824,16.669838,Natiolum ,near Giovinazzo,,BAtlas,Italy Adriatic,m,,,,,,,,,,
747,41.215935,16.594850,Respa ,near Molfetta,,BAtlas,Italy Adriatic,m,,,,,,,,,,
748,41.286177,16.423982,Turenum ,Trani,,Flemming,Italy Adriatic,m,,,,,,,,,,
749,41.334436,16.287075,Barduli ,Barletta,,Flemming,Italy Adriatic,m,,,,,,,,,,
750,41.328759,16.209294,"Aufinum, Aufidena on the R Aufidus, port of the Canusites ","R Ofanto, near Barletta","Strabo, Geogr, 6, 3",BAtlas,Italy Adriatic,a,,,,,,,,,,
751,41.370897,16.038829,San Vito ,near Trinitapoli,,BAtlas,Italy Adriatic,m,,,,,,,,,,
752,41.400101,15.983703,"Salapia, Argyrippe, Argos Hippium, Arpi ",near Trinitapoli,"Strabo, Geogr, 6,3 ; Pliny, Hist Nat, 3, 16 ; Vtruvius, Architectura, 1, 4","BAtlas, Flemming",Italy Adriatic,a,,,,,,,,,,
753,41.513559,15.923529,Auxanum ,near Ippocampo,,BAtlas,Italy Adriatic,m,,,,,,,,,,
754,41.517141,15.832191,,Masseria Cupola ,,BAtlas,Italy Adriatic,m,,,,,,,,,,
755,41.580510,15.789651,Coppa Nevigatta ,near Masseria Tuori ?,,BAtlas,Italy Adriatic,m,,,,,,,,,,
756,41.605674,15.903378,,"Mascherone, near Siponto ",,BAtlas,Italy Adriatic,m,,,,,,,,,,
757,41.617859,15.922100,"Sipontum, Sipunte ",Manfredonia,"Antonine, Itin Mar","Flemming, Blackman",Italy Adriatic,a,,rs,,,,,,,,
758,41.706483,16.074573,Matinus ,Mattinata,"Pliny, Hist Nat, 3, 16","Flemming, BAtlas calls it Agnuli",Italy Adriatic,a,,,,,,,,,,
759,41.893216,16.186979,"Portus Aggasus, Port Agasus ",near Vieste ?,"Pliny, Hist Nat, 3, 16",,Italy Adriatic,a,,,,,,,,,,
760,41.916611,16.128335,Merinum ,Santa Maria di Merino,,"Flemming, BAtlas",Italy Adriatic,m,,,,,,,,,,
